Latitude,Longitude,Motorista,Cidade,Nota,Contrato
-10.9112370014188,-37.0620775222768,Motorista 1,Aracaju,9,1
-9.48594331741306,-35.8575725555409,Motorista 2,Rio Largo,8,2
-23896,-53.41,Motorista 3,Perobal,7,3
-16.447874307632,-41.0098600387561,Motorista 4,Jequitinhonha,5,1
-6.57331109046917,-35.1076054573049,Motorista 5,Mataraca,8,2
-7.03715085983256,-37.2887992858876,Motorista 6,Patos,9,3
-5.99885702133161,-40.2936887741077,Motorista 7,Tauá,6,3
-24.5821130275719,-49.435493946074,Motorista 8,Doutor Ulysses,2,2
-5.89795231819136,-44.8160004615771,Motorista 9,Tuntum,8,1
-9.55789089202853,-37.3832130432118,Motorista 10,São José da Tapera,7,1
-3.09060215950003,-59.9864888191206,Motorista 11,Manaus,5,2
-15.6327939033504,-58.1737661361677,Motorista 12,São José dos Quatro Marcos,4,3
-14.5426476001735,-52.7972888946518,Motorista 13,Campinápolis,6,3
-16.0691678524013,-47.9820585250841,Motorista 14,Valparaíso de Goiás,9,2
-27.029885,-48.668039,Motorista 15,Camboriú,8,1
-29.6088624000541,-51.1745309829697,Motorista 16,Ivoti,5,1
-15453,-47614,Motorista 17,Planaltina,4,2
-22.0929586887353,-43.9471149444567,Motorista 18,Rio Preto,5,3
-12431,-38328,Motorista 19,Pojuca,9,3
-29.1107439994804,-49.6437835693345,Motorista 20,Sombrio,8,2
-9.3700182437894,-40.482494831084,Motorista 21,Petrolina,5,1
-9.34695124626132,-40.3852057456958,Motorista 22,Petrolina,6,2
-22.0368361473077,-42.9901456832873,Motorista 23,Sapucaia,8,3
-26.7414307594292,-52.9707098007187,Motorista 24,Sul Brasil,5,2
-13.6370587348934,-43.4363365173327,Motorista 25,Bom Jesus da Lapa,2,1
-3.0269479751586,-60.1796722412092,Motorista 26,Manaus,6,2
-23.86747598648,-52.8732490539535,Motorista 27,Tuneiras do Oeste,9,3
-27.90001630783,-48.9291143417344,Motorista 28,São Bonifácio,8,2
-14.3435847759243,-60.2327156066877,Motorista 29,Vila Bela da Santíssima Trindade,6,1
-10.5664980411526,-48.9105319976792,Motorista 30,Nova Rosalândia,9,2
-10.7106292247769,-62.2592854499799,Motorista 31,Ouro Preto do Oeste,8,3
-10.7499611377713,-40.3623318672168,Motorista 32,Pindobaçu,7,2
-7.85855054855324,-35.8061170577993,Motorista 33,Surubim,4,1
-5.35941839218124,-36.8054223060597,Motorista 34,Alto do Rodrigues,5,2
-20.4969155788416,-54.6768736839279,Motorista 35,Campo Grande,6,3
-29.6537303924552,-51.1117029190049,Motorista 36,Novo Hamburgo,9,3
-6.09307765960676,-38.3753085136402,Motorista 37,Doutor Severiano,8,3
-27.3173010349266,-49.6367883682237,Motorista 38,Aurora,5,2
-30.1683390140525,-53.517022132872,Motorista 39,São Sepé,6,1
-28.4566497802726,-52.1973538398728,Motorista 40,Marau,9,2
-30.1525354385367,-51.3434028625473,Motorista 41,Guaíba,8,3
-9741,-36503,Motorista 42,Limoeiro de Anadia,5,2
-2.87037134170524,-44.1055369377123,Motorista 43,Axixá,6,1
-9.83,-36738,Motorista 44,Lagoa da Canoa,6,2
-23.6209487915032,-50.1676082611069,Motorista 45,Conselheiro Mairinck,6,3
-9.00931477546666,-36.3293838500966,Motorista 46,Palmeirina,6,2
-19.790807962417,-44.0047502517687,Motorista 47,Ribeirão das Neves,8,1
-17.6418328285212,-42.6786231994616,Motorista 48,Capelinha,7,2
-30.4481470584861,-51.6436600685105,Motorista 49,Sertão Santana,5,3
-3.50030422210683,-42.1938300132739,Motorista 50,Joaquim Pires,8,1
-13.1279464111282,-39.0058787840283,Motorista 51,Jaguaripe,4,2
-19.7089362144464,-44.5583367347704,Motorista 52,São José da Varginha,5,3
-3.81399393081654,-60.3533291816694,Motorista 53,Careiro,8,1
-22764,-43399,Motorista 54,Belford Roxo,5,2
2.42958,-60.9005,Motorista 55,Mucajaí,9,3
-16.9763307970958,-40.2414352380254,Motorista 56,Vereda,8,3
-3.20593714714041,-45.0032186508166,Motorista 57,Viana,7,2
-27.6032888889305,-48.5755133628831,Motorista 58,Florianópolis,5,1
-1.52132749557491,-45.0787067413317,Motorista 59,Apicum-Açu,8,1
-6.72136902809124,-36.0591888427724,Motorista 60,Barra de Santa Rosa,9,2
-22.6262998580926,-43.1733083724963,Motorista 61,Magé,6,3
-22.7592301368707,-48.5763716697679,Motorista 62,São Manuel,2,3
-18.1669020652766,-42.7656126022326,Motorista 63,Frei Lagonegro,8,2
-3.13397884368887,-42.902727127074,Motorista 64,Barreirinhas,7,1
-16.692583,-49.09966,Motorista 65,Senador Canedo,5,1
-8.7501704692838,-43.9433598518359,Motorista 66,Cristino Castro,4,2
-18.067746162414,-41.4275979995716,Motorista 67,Frei Gaspar,6,3
-19.032922983169,-46.154530048369,Motorista 68,Arapuá,9,3
-3.62546,-39.5083,Motorista 69,Uruburetama,8,2
-11.9096624851223,-39.1988968849171,Motorista 70,Candeal,5,1
-2.10640311241144,-47.9291224479661,Motorista 71,São Domingos do Capim,4,2
-21.0925805568689,-46.2122941017137,Motorista 72,Conceição da Aparecida,5,3
-9.35214400291416,-40.519058704375,Motorista 73,Petrolina,9,2
-7.244710922241,-41.804094314574,Motorista 74,Wall Ferraz,8,1
-16.076871156692,-48.0761075019822,Motorista 75,Novo Gama,5,2
-10.9135973453519,-38.8758945465077,Motorista 76,Tucano,6,3
-15.669282674789,-44.164910316466,Motorista 77,Ibiracatu,8,2
-6.30997180938702,-40.6741762161243,Motorista 78,Parambu,5,1
-21.9954121112817,-51.0257220268235,Motorista 79,Martinópolis,2,2
-15.2436375617977,-39.3521904945362,Motorista 80,Arataca,6,3
-23805,-53684,Motorista 81,Pérola,9,2
-3.98187875747669,-42.6234126090991,Motorista 82,Nossa Senhora dos Remédios,8,1
-20.694208145141,-44.832565784453,Motorista 83,Oliveira,6,2
-20.565440654754,-43.6177611351001,Motorista 84,Ouro Branco,9,3
-19.9206161499018,-43.4672570228564,Motorista 85,Barão de Cocais,8,3
-1.20216608047482,-47.1905493736253,Motorista 86,Capanema,7,3
-32015,-52042,Motorista 87,São José do Norte,4,2
-3.26680183410635,-45.6519699096666,Motorista 88,Zé Doca,5,1
-20.2026236057276,-41.8972635269153,Motorista 89,Reduto,6,2
-21.8402731418603,-48.4956908225999,Motorista 90,Gavião Peixoto,9,3
-25.4409027099602,-49.4568443298325,Motorista 91,Campo Largo,8,2
-1.32707118988033,-48.4151601791368,Motorista 92,Ananindeua,5,1
-21.0572504997247,-49.0636110305772,Motorista 93,Catiguá,6,2
-20.4712092876428,-45.8038258552538,Motorista 94,Pimenta,9,3
-3.27142596244803,-45.6540513038622,Motorista 95,Zé Doca,8,2
-22.6115477085107,-45.1848149299609,Motorista 96,Piquete,5,1
-1.75238370895381,-47.692615985869,Motorista 97,São Domingos do Capim,6,2
-9.64348554611178,-36.4851021766652,Motorista 98,Taquarana,6,3
-22.6819825172418,-43.6115384101855,Motorista 99,Japeri,6,1
-0.160138607025142,-50.3851461410508,Motorista 100,Afuá,6,2
-15.5325758457179,-42.3053455352771,Motorista 101,Indaiabira,8,3
-3.70877623558034,-45.5678558349596,Motorista 102,Tufilândia,7,1
-29.1615235805503,-51.6349482536301,Motorista 103,Monte Belo do Sul,5,2
-14.8792755603786,-40.8806204795826,Motorista 104,Vitória da Conquista,8,3
-9.16759729385349,-35.2934718132009,Motorista 105,Porto de Pedras,4,3
-29.8921787738791,-52.388670444487,Motorista 106,Rio Pardo,5,2
-23.3706879615777,-51.1568498611435,Motorista 107,Londrina,8,1
-4.43477511405932,-41.4530467987049,Motorista 108,Pedro II,5,1
-22.0664155483239,-51.4175176620468,Motorista 109,Álvares Machado,9,2
-11.908514499664,-41.7018699645984,Motorista 110,Barro Alto,8,3
-26.23,-51086,Motorista 111,União da Vitória,7,3
-10.4247486591336,-48.8966703414903,Motorista 112,Pugmil,5,2
-22.2737610340112,-46.9452667236314,Motorista 113,Estiva Gerbi,8,1
-8.88655543327306,-36.4651894569386,Motorista 114,Garanhuns,9,1
-26.775076389312,-51.0322451591477,Motorista 115,Caçador,6,2
-26.4063262939445,-50.7344770431504,Motorista 116,Irineópolis,2,3
-21.8880701065057,-51.7288470268234,Motorista 117,Piquerobi,8,3
-3.12981605529776,-60.0306487083418,Motorista 118,Manaus,7,2
-29.4220626354209,-49.8792600631699,Motorista 119,Três Cachoeiras,5,1
-27.7738988399498,-54.2405748367294,Motorista 120,Três de Maio,4,2
-25.4932487010948,-49.3495130538926,Motorista 121,Curitiba,6,3
-1.52498602867122,-46.8969011306749,Motorista 122,Santa Luzia do Pará,9,2
-23.4356296062463,-46.5616679191576,Motorista 123,Guarulhos,8,1
-21.9455552101129,-41.9662070274341,Motorista 124,Santa Maria Madalena,5,2
-23.090139627456,-45.1918959617602,Motorista 125,Lagoinha,4,3
-20.4286372661585,-54.6381640434249,Motorista 126,Campo Grande,5,2
0.84882259368894,-50.6621003150925,Motorista 127,Macapá,9,1
-3.04898500442496,-60.0016593933088,Motorista 128,Manaus,8,2
-25616,-53128,Motorista 129,Cruzeiro do Iguaçu,5,3
-20.3643071651453,-41.6084647178638,Motorista 130,Irupi,6,2
-16.7204082012172,-49.4339060783372,Motorista 131,Abadia de Goiás,8,1
-7.83520460128761,-35.7507562637319,Motorista 132,Surubim,5,2
-20.4510819911951,-53.76700401306,Motorista 133,Ribas do Rio Pardo,2,3
-15.1677739620204,-58.8621068000776,Motorista 134,Jauru,6,3
-5.39449095725998,-50.1163029670701,Motorista 135,Itupiranga,9,3
-20.5500233173364,-54.6517467498763,Motorista 136,Campo Grande,8,2
-20.1816165447229,-49.7005605697617,Motorista 137,Pontes Gestal,6,1
-19.8095941543573,-44.0064668655383,Motorista 138,Ribeirão das Neves,9,2
-10.9689688682553,-37.0820760726918,Motorista 139,Aracaju,8,3
-8.15812110900855,-70.3494715690592,Motorista 140,Feijó,7,2
-13.8490605354305,-40.0897550582874,Motorista 141,Jequié,4,1
-5.07280826568589,-37.9895424842823,Motorista 142,Quixeré,5,2
-27.7885973453514,-50.293157100676,Motorista 143,Lages,6,3
-20.7282936573023,-40.7785463333118,Motorista 144,Anchieta,9,2
-7.30880498886087,-38.1404972076405,Motorista 145,Itaporanga,8,1
-23.4171330928796,-51.4141702651963,Motorista 146,Arapongas,5,2
-10004,-36024,Motorista 147,Jequiá da Praia,6,1
-13.4543458708136,-39.4238602549016,Motorista 148,Presidente Tancredo Neves,9,2
-19.8221898078913,-43.1370234489428,Motorista 149,João Monlevade,8,3
-20764,-41533,Motorista 150,Alegre,5,1
-28.3111345767967,-53.5034179687485,Motorista 151,Panambi,6,2
-3.12445163726798,-59.999899864195,Motorista 152,Manaus,6,3
-29.2403912544242,-51.0206151008591,Motorista 153,Caxias do Sul,6,3
-13.8836932182308,-41.7095088958728,Motorista 154,Dom Basílio,6,2
-20443,-54646,Motorista 155,Campo Grande,8,1
-2.00996160507196,-54.3528628349288,Motorista 156,Monte Alegre,7,1
-27.717937231063,-52.620820999144,Motorista 157,Campinas do Sul,5,2
-5.12997150421128,-38.0572414398182,Motorista 158,Limoeiro do Norte,8,3
-7.37665414810159,-38.7692928314198,Motorista 159,Mauriti,4,3
-23.0575883388513,-46.7561602592455,Motorista 160,Itatiba,5,2
-23.5522413253777,-46.8091821670519,Motorista 161,Osasco,8,1
-22.5611865520471,-44.9463343620287,Motorista 162,Cruzeiro,5,1
-23.1496310234063,-47.0522975921617,Motorista 163,Itupeva,9,2
-13.0737020285614,-44.1393469792846,Motorista 164,Canápolis,8,3
-5.3610491752623,-42.6782369613635,Motorista 165,Demerval Lobão,7,3
-9.14112925529453,-41.9346857070911,Motorista 166,Dom Inocêncio,5,2
-23.6931002140038,-54.5639419555648,Motorista 167,Iguatemi,8,1
-4.65360045433031,-38.9427137374867,Motorista 168,Itapiúna,9,2
-6.78318858146648,-35.8165454864492,Motorista 169,Casserengue,6,3
-29.2171311378471,-51.3317084312424,Motorista 170,Farroupilha,2,2
-29.4901156425468,-51.3571357727036,Motorista 171,Bom Princípio,8,1
-23.6287915706628,-50.0261163711533,Motorista 172,Tomazina,7,2
-22.5620877742761,-47.1594357490526,Motorista 173,Artur Nogueira,5,3
-22.7903115749353,-43.3738088607776,Motorista 174,São João de Meriti,4,2
-21.1377060413354,-44.2634654045092,Motorista 175,São João del Rei,6,1
-10.6329524517056,-37.0755314826955,Motorista 176,Rosário do Catete,9,2
-9.28607583045932,-40.5065703392017,Motorista 177,Petrolina,8,3
-27.5596761703483,-53.1806945800766,Motorista 178,Novo Tiradentes,5,2
-21.1950409412378,-43.6404848098742,Motorista 179,Barbacena,4,1
-5.02723217010483,-42.4546909332263,Motorista 180,Altos,5,2
0.805134773254371,-51.9796657562241,Motorista 181,Pedra Branca do Amapari,9,3
-8.838458061218,-69.259614944456,Motorista 182,Manoel Urbano,8,3
-21.3601362705225,-46.1398959159838,Motorista 183,Areado,5,3
-15.464329719543,-47.6136946678148,Motorista 184,Planaltina,6,2
-23.1955504417413,-52.494757175444,Motorista 185,Tamboara,8,1
-23.6302399635308,-46.443586349486,Motorista 186,São Paulo,5,2
-28.2813942432395,-49.151823520659,Motorista 187,Braço do Norte,2,3
-20.3143537044519,-43.5780858993518,Motorista 188,Ouro Preto,6,2
-22.748125791549,-50.5790162086472,Motorista 189,Tarumã,9,1
-24.516023397445,-54.1201758384689,Motorista 190,Marechal Cândido Rondon,8,2
-14.5311141014095,-49.1406226158128,Motorista 191,Uruaçu,6,3
-26.7997097969047,-52.6245975494369,Motorista 192,Marema,9,2
-21.1861038208002,-44.9138259887682,Motorista 193,Ijaci,8,1
-7.95101165771461,-35.3869843482961,Motorista 194,Feira Nova,7,2
-25195,-51993,Motorista 195,Goioxim,4,3
-23.5162889957421,-46.4271068572985,Motorista 196,São Paulo,5,1
-23.4727621078484,-53.0853366851791,Motorista 197,Nova Olímpia,6,2
-10.6634438037869,-68.4896492958049,Motorista 198,Xapuri,9,3
-12.4975437594966,-41.294421850872,Motorista 199,Lençóis,8,1
-8.63339781761144,-36.9262719154347,Motorista 200,Pedra,5,2
-5.13404846191391,-38.240189552306,Motorista 201,Morada Nova,6,3
-14.6638083457943,-57.3600482940657,Motorista 202,Tangará da Serra,9,3
-24714,-53743,Motorista 203,Toledo,8,2
-7.09524750709513,-34.8646831512441,Motorista 204,João Pessoa,5,1
-14.7722768783565,-39.2649006843555,Motorista 205,Itabuna,6,1
-28.8148534297935,-52.4847364425644,Motorista 206,Soledade,6,2
-14.9245941638942,-42.8122615814197,Motorista 207,Espinosa,6,3
-12.7432394027706,-38.6147117614735,Motorista 208,Madre de Deus,6,3
-27.4073803424827,-52.0388674736008,Motorista 209,Marcelino Ramos,8,2
-8.03947091102577,-34.950213432311,Motorista 210,Recife,7,1
-3.37677240371694,-40.6239223480213,Motorista 211,Moraújo,5,1
-12.4372100830075,-38.9486789703358,Motorista 212,São Gonçalo dos Campos,8,2
-8.34254980087256,-36.4097642898549,Motorista 213,Belo Jardim,4,3
-26721,-48933,Motorista 214,Luiz Alves,5,3
-7.13000893592814,-34.9594402313222,Motorista 215,Santa Rita,8,2
-19.8602449893946,-43.8628935813891,Motorista 216,Sabará,5,1
-1.60285592079158,-47.6125788688646,Motorista 217,São Miguel do Guamá,9,2
-7.59902000427224,-72.683401107786,Motorista 218,Cruzeiro do Sul,8,3
-22.7723407745355,-43.6612558364855,Motorista 219,Seropédica,7,2
-22.8574204444879,-43.6737871170031,Motorista 220,Seropédica,5,1
-8.3900141716001,-48.4854769706712,Motorista 221,Brasilândia do Tocantins,8,2
-21.6794586181634,-42.185740470885,Motorista 222,Aperibé,9,3
-25.9441387653343,-49.4025564193711,Motorista 223,Quitandinha,6,2
-31.3021731376639,-54.0797066688522,Motorista 224,Bagé,2,1
-22.4785530567163,-43.6519861221301,Motorista 225,Engenheiro Paulo de Frontin,8,2
-7.8699982166288,-38.7584996223438,Motorista 226,São José do Belmonte,7,3
-16.63482427597,-49.5164966583238,Motorista 227,Trindade,5,2
-22.7251660823815,-44.128882884978,Motorista 228,Rio Claro,4,1
-19.9513542652124,-44.3449187278735,Motorista 229,Juatuba,6,2
-6.2362325191496,-42.6742458343494,Motorista 230,Regeneração,9,3
-9.48923707008334,-44.5853090286242,Motorista 231,Redenção do Gurguéia,8,3
3.84697437286366,-51.8279814720139,Motorista 232,Oiapoque,5,3
-4.39225673675524,-44.9960732460009,Motorista 233,Bom Lugar,4,2
-8.96359920501683,-37.3775053024281,Motorista 234,Itaíba,5,1
-20.0087749958033,-42.0021700859058,Motorista 235,Simonésia,9,2
-5.14823198318467,-38.099169731139,Motorista 236,Limoeiro do Norte,8,3
-5.21690726280197,-35.6192207336415,Motorista 237,Touros,5,2
-5.29773831367477,-36.7614769935597,Motorista 238,Alto do Rodrigues,6,1
-25.2387392520897,-49.1853618621812,Motorista 239,Colombo,8,2
-23.8527560234063,-46.7152404785143,Motorista 240,São Paulo,5,3
-23.8416624069207,-46.7371273040758,Motorista 241,São Paulo,2,2
-12.9727775236596,-39.2739974309191,Motorista 242,Santo Antônio de Jesus,6,1
-2.65264034271233,-43.610186576842,Motorista 243,Humberto de Campos,9,2
-6.85364484786967,-45.1665329933153,Motorista 244,Loreto,8,3
-3.67161154746999,-45.6333875656115,Motorista 245,Tufilândia,6,1
-16.3166499137874,-48.9672446250901,Motorista 246,Anápolis,9,2
-7.7877616882322,-41.1300444602954,Motorista 247,Jacobina do Piauí,8,3
-2.91189193725577,-41.7582821845996,Motorista 248,Parnaíba,7,1
-20101,-40.53,Motorista 249,Santa Leopoldina,4,2
-10.6657183170316,-39.7476983070362,Motorista 250,Itiúba,5,3
-7.49462842941262,-35.8381533622731,Motorista 251,Gado Bravo,6,3
-26.2610793113701,-49.5353794097886,Motorista 252,Rio Negrinho,9,2
-6.66637301444988,-36.2900519371022,Motorista 253,Picuí,8,1
-19519,-41016,Motorista 254,Baixo Guandu,5,1
-7.26160883903482,-64.7922778129559,Motorista 255,Lábrea,6,2
-2.9506015777587,-45.6639003753649,Motorista 256,Araguanã,9,3
-21.6154289245599,-55.1695847511275,Motorista 257,Maracaju,8,3
-22.9463303089135,-45.4576706886278,Motorista 258,Pindamonhangaba,5,2
-7.52759814262368,-46.062304973601,Motorista 259,Balsas,6,1
-5.11015534400925,-49.984273910521,Motorista 260,Itupiranga,6,1
-3.95006775856007,-38.4828114509571,Motorista 261,Aquiraz,6,2
-12.2757089138027,-38.9778399467457,Motorista 262,Feira de Santana,6,3
-13.0312696592111,-39.5966094286216,Motorista 263,Amargosa,8,3
-11.6172587871548,-37.5350260734547,Motorista 264,Jandaíra,7,2
-16.0115647315974,-48.0734467506395,Motorista 265,Brasília,5,1
-16.4309871196742,-39.0863943099964,Motorista 266,Porto Seguro,8,2
-14.9584758281703,-49.5405292510972,Motorista 267,Itapaci,4,3
-2.10140347480768,-56.4944243431075,Motorista 268,Terra Santa,5,2
-21.1248743534082,-47.8244948387132,Motorista 269,Ribeirão Preto,8,1
-11.3039982318875,-41.8379974365222,Motorista 270,Irecê,5,2
-13.2594488643109,-39.5676762721429,Motorista 271,Jiquiriçá,9,3
-23.8370168209069,-51.5668845176682,Motorista 272,Novo Itacolomi,8,2
-21.8237400054925,-46.9012999534593,Motorista 273,Vargem Grande do Sul,7,1
-20.235121250152,-43.8023185729968,Motorista 274,Itabirito,5,2
-18.3367609977717,-41.0029077529895,Motorista 275,Ecoporanga,8,3
-14.0775096416469,-48.9683604240403,Motorista 276,Campinorte,9,2
-15.5576062202449,-49.9497699737534,Motorista 277,Itapuranga,6,1
-5.21630644798264,-37.4985051155079,Motorista 278,Mossoró,2,2
-13.1090596730754,-39.1072887299307,Motorista 279,Aratuípe,8,3
-5.62810063362105,-63.1892824172955,Motorista 280,Tapauá,7,3
-22.9325759410851,-53.1296682357773,Motorista 281,Loanda,5,3
-7.08371400833109,-35.2283906936635,Motorista 282,Sapé,4,2
-4.09384489059436,-39.2440438270557,Motorista 283,Paramoti,6,1
-3.89649868011463,-59.0905237197859,Motorista 284,Nova Olinda do Norte,9,2
-17.777595520019,-50.9283900260911,Motorista 285,Rio Verde,8,3
-3.75833272933949,-38.6174798011769,Motorista 286,Caucaia,5,2
-25.2011239528649,-54.1421270370468,Motorista 287,Medianeira,4,1
0.359190702438344,-51.1245989799485,Motorista 288,Macapá,5,2
-23.1924498081201,-46.6767668724046,Motorista 289,Jarinu,9,3
-14.840812683105,-41.3951539993274,Motorista 290,Tremedal,8,2
-22.8622698783868,-47.0371913909898,Motorista 291,Campinas,5,1
-22.8637826442712,-47.153384685515,Motorista 292,Campinas,6,2
-7.88870930671669,-37.1206784248341,Motorista 293,Monteiro,8,3
-30.0002503395072,-51.1037850379929,Motorista 294,Porto Alegre,5,1
-6.66865825653057,-69.8663091659526,Motorista 295,Eirunepé,2,2
-12.8706382058428,-39.8575280952069,Motorista 296,Milagres,6,3
-2.0509779453277,-47.5559949874864,Motorista 297,Mãe do Rio,9,1
-7.78071284294106,-39.9351739883411,Motorista 298,Bodocó,8,2
-1.3718748092651,-48.2460951805101,Motorista 299,Benevides,6,3
-22.9481005668633,-47.0244026184068,Motorista 300,Campinas,9,3
-12.5411725044247,-49.926638603209,Motorista 301,Sandolândia,8,2
-27.3926067352287,-51.6990208625778,Motorista 302,Capinzal,7,1
-7.0461094379423,-41.5373754501331,Motorista 303,Picos,4,1
-6.39642477035504,-41.9757986068713,Motorista 304,Novo Oriente do Piauí,5,2
-7.25753188133219,-39.4501018524158,Motorista 305,Crato,6,3
-2.85011529922477,-41.8093299865711,Motorista 306,Ilha Grande,9,3
-25881,-52908,Motorista 307,Verê,8,2
-7.90425539016701,-35.9911251068105,Motorista 308,Vertentes,5,1
-23.1363487243646,-55.2125215530379,Motorista 309,Amambaí,6,1
-6.41389131546002,-35.1792955398549,Motorista 310,Canguaretama,9,2
-29.2021429538718,-54.8626327514633,Motorista 311,Santiago,8,3
-29.3499863147727,-50.7956957817063,Motorista 312,Canela,5,3
-6.03811383247358,-37.9109430313099,Motorista 313,Martins,6,2
-7.92886734008766,-37.5855374336232,Motorista 314,Custódia,6,1
-20.8470296859735,-43.2506203651416,Motorista 315,Brás Pires,6,2
-19.8702549934381,-41.2396073341358,Motorista 316,Aimorés,6,3
-7576,-40498,Motorista 317,Araripina,8,2
-1.60738348960872,-48.6549067497239,Motorista 318,Barcarena,7,1
-13.0489575862881,-39.4567322731007,Motorista 319,São Miguel das Matas,5,2
-16.3883721828456,-40.2551293373096,Motorista 320,Jacinto,8,3
-17.7360212802882,-39.2638707160938,Motorista 321,Caravelas,4,2
-27.3996663093559,-48.6024641990647,Motorista 322,Governador Celso Ramos,5,1
-5.77415227889998,-43.0762553215014,Motorista 323,Palmeirais,8,2
-28.2324385642997,-48.7029504775987,Motorista 324,Imbituba,5,3
-4.47299122810351,-41.5915346145618,Motorista 325,Pedro II,9,2
-23.7716138362878,-46.7127513885484,Motorista 326,São Paulo,8,1
-29.4768977165214,-52.1756386756882,Motorista 327,Venâncio Aires,7,2
-7.67605304717995,-40.0816440582264,Motorista 328,Bodocó,5,3
-13.5465180873867,-52.2650742530808,Motorista 329,Canarana,8,3
-6.81771397590617,-35.6426095962514,Motorista 330,Serraria,9,3
-18.3869183063502,-46.0371351242052,Motorista 331,Varjão de Minas,6,2
-22.8382802009576,-47.9237794876085,Motorista 332,Piracicaba,2,1
-28.2512676715843,-52.3874258995041,Motorista 333,Passo Fundo,8,2
-20.6801426410669,-43.7848091125475,Motorista 334,Conselheiro Lafaiete,7,3
-7.39822983741739,-35.1140427589406,Motorista 335,Pedras de Fogo,5,2
-6.9737434387205,-41.2870717048633,Motorista 336,Santo Antônio de Lisboa,4,1
-22.532712221145,-44.1256856918322,Motorista 337,Volta Redonda,6,2
-29.6253311634055,-50.9638810157761,Motorista 338,Sapiranga,9,3
-8.81076693534825,-35.2007532119741,Motorista 339,Barreiros,8,2
-27.6738524436943,-53.3134961128219,Motorista 340,Boa Vista das Missões,5,1
-14.2852306365963,-49.3903255462632,Motorista 341,Nova Iguaçu de Goiás,4,2
-3.97390723228443,-40.7593202590931,Motorista 342,Graça,5,3
-22839,-42103,Motorista 343,São Pedro da Aldeia,9,1
-9.96227145194978,-36.4349341392507,Motorista 344,Teotônio Vilela,8,2
-10.556477308273,-55.9448933601363,Motorista 345,Nova Canaã do Norte,5,3
-24.3698215484612,-50.8092999458298,Motorista 346,Ortigueira,6,1
-19.8782694339746,-44.0261864662158,Motorista 347,Contagem,8,2
-23.0005002021783,-45.5296182632433,Motorista 348,Taubaté,5,3
-9.95206832885713,-54.9019217491134,Motorista 349,Guarantã do Norte,2,3
-22.4502503871911,-45.16809940338,Motorista 350,Marmelópolis,6,2
-25.5534803867333,-49.3910980224595,Motorista 351,Araucária,9,1
-11.136585474014,-58.6135196685774,Motorista 352,Castanheira,8,1
-10.5080580711362,-45.0532793998705,Motorista 353,Corrente,6,2
-19.7492444515223,-43.9522862434374,Motorista 354,Vespasiano,9,3
-3.12910795211783,-42.1848177909839,Motorista 355,Araioses,8,3
-7.94496059417702,-34.9024271965017,Motorista 356,Paulista,7,2
-10.5839109420773,-38.6121368408192,Motorista 357,Banzaê,4,1
-15.4217469692226,-47.6214194297777,Motorista 358,Planaltina,5,1
-21.9986844062799,-51.5663480758652,Motorista 359,Presidente Bernardes,6,2
-19.9212491512293,-43.9948368072497,Motorista 360,Belo Horizonte,9,3
-2.56481409072869,-44.3331599235522,Motorista 361,São Luís,8,3
-8.31706881523108,-35.0874352455129,Motorista 362,Cabo de Santo Agostinho,5,2
-5.88162302970869,-35.2334117889394,Motorista 363,Parnamirim,6,1
-18.524494171142,-53.1492161750778,Motorista 364,Costa Rica,9,2
-8.13230752944923,-36.3013172149648,Motorista 365,Brejo da Madre de Deus,8,3
-1.91552639007563,-51.0968756675705,Motorista 366,Portel,5,2
-23.6686170101159,-54.5597362518295,Motorista 367,Iguatemi,6,1
-18.948100805282,-48.3184075355516,Motorista 368,Uberlândia,6,2
-25535,-49206,Motorista 369,São José dos Pinhais,6,3
-20.683404207229,-41.8832731246936,Motorista 370,Caiana,6,2
-20.1443767547602,-42.2982215881335,Motorista 371,Caputira,8,1
-28.5215163230888,-49.3223476409898,Motorista 372,Urussanga,7,2
-3.08080673217764,-60.0441884994489,Motorista 373,Manaus,5,3
-9.25038099288914,-38.1595516204823,Motorista 374,Jatobá,8,2
-15.6437802314754,-43.3037710189807,Motorista 375,Janaúba,4,1
-9.83501672744722,-35.9817266464223,Motorista 376,Roteiro,5,2
-7.65508890151955,-35.3239202499379,Motorista 377,Vicência,8,3
-19.0697658061976,-51.5498256683335,Motorista 378,Itajá,5,3
-24.9507451057427,-50.1142215728745,Motorista 379,Carambeí,9,3
-19.1653704643244,-41.7367815971362,Motorista 380,Itanhomi,8,2
-19.9728119373316,-47.7721381187425,Motorista 381,Delta,7,1
-19.2286705970759,-43.252315521239,Motorista 382,Santo Antônio do Rio Abaixo,5,2
-6.67728424072246,-36.4185619354237,Motorista 383,Nova Palmeira,8,3
-25.2925,-49.2244,Motorista 384,Colombo,9,2
-26.3173627853386,-48.8048529624925,Motorista 385,Joinville,6,1
-20.9008133411401,-49.2704844474778,Motorista 386,Cedral,2,2
-28.646003007888,-49.4299578666673,Motorista 387,Criciúma,8,3
-16.9629979133601,-50.4273104667649,Motorista 388,Paraúna,7,2
-20.3663456439966,-43.7141275405871,Motorista 389,Ouro Preto,5,1
-18.9898252487177,-49.1790747642503,Motorista 390,Prata,4,2
-29.2999899387351,-52.4241185188278,Motorista 391,Boqueirão do Leão,6,3
-11.7468202114102,-44.9126887321459,Motorista 392,Riachão das Neves,9,1
-7.82033443450905,-46.8934249877916,Motorista 393,Carolina,8,2
-23.0249190330499,-55.5879020690902,Motorista 394,Aral Moreira,5,3
-23.7291276454919,-45.4404401779162,Motorista 395,São Sebastião,4,1
-21.8616020679468,-50.6921195983872,Motorista 396,Iacri,5,2
-26.8257701396934,-53.5018515586837,Motorista 397,Descanso,9,3
-22.9309022426599,-46.2723755836473,Motorista 398,Joanópolis,8,3
-3.10589075088492,-60.0300693511945,Motorista 399,Manaus,5,2
-22.8337097167962,-47.1853780746446,Motorista 400,Sumaré,6,1
-13.9724421501156,-41.4307522773731,Motorista 401,Ituaçu,8,1
-22.978656291961,-47.1219491958604,Motorista 402,Campinas,5,2
-19.4970417022699,-41.0714864730823,Motorista 403,Aimorés,2,3
-26.7380833625786,-53.5185241699203,Motorista 404,São Miguel do Oeste,6,3
-16.7172324657435,-43.8129186630236,Motorista 405,Montes Claros,9,2
-27.5881719589225,-48.6374187469468,Motorista 406,São José,8,1
-20.9090423583978,-44.5079112052905,Motorista 407,São Tiago,6,1
-23.4204268455499,-46.4292740821825,Motorista 408,Guarulhos,9,2
-27.4020695686332,-51.2357926368699,Motorista 409,Campos Novos,8,3
-25.4135870933525,-49.3014478683457,Motorista 410,Curitiba,7,3
-29.1127288341514,-49.6765494346604,Motorista 411,Sombrio,4,2
-4.05075788497913,-38.7165498733509,Motorista 412,Maranguape,5,1
-22.2196233272546,-51.3006162643418,Motorista 413,Regente Feijó,6,2
-9.480890035629,-37.2383952140797,Motorista 414,Olivença,9,3
-17.4107336997981,-39.5949625968922,Motorista 415,Alcobaça,8,2
-14.9447107315059,-40.4476046562183,Motorista 416,Caatiba,5,1
-22.844116687774,-45.2283740043627,Motorista 417,Aparecida,6,2
-9.39514517784091,-35.8396768569936,Motorista 418,Messias,9,3
-23.7298464775079,-46.6179513931261,Motorista 419,Diadema,8,2
-4.26845669746386,-46.4415907859789,Motorista 420,Buriticupu,5,1
-22.6769185066217,-48.6661291122422,Motorista 421,Areiópolis,6,2
-23874,-53902,Motorista 422,Altônia,6,3
-12.6672397105656,-38.5331534201463,Motorista 423,Candeias,6,2
-11.9198119640347,-38.3906507492054,Motorista 424,Inhambupe,6,1
-6.75859808921794,-35.3957819938649,Motorista 425,Sertãozinho,8,2
-21.8435239791864,-46.9193029403673,Motorista 426,Vargem Grande do Sul,7,3
-21.9822907447809,-41.1925506591785,Motorista 427,Campos dos Goytacazes,5,3
-6.39585614204388,-41.735837459563,Motorista 428,Valença do Piauí,8,3
-24.2128586769097,-48.8639688491807,Motorista 429,Ribeirão Branco,4,2
-26.4800333976738,-49.6040225028977,Motorista 430,Rio Negrinho,5,1
-19.1140007972712,-57.7103447914107,Motorista 431,Corumbá,8,2
-15.2111721038814,-41.0837173461902,Motorista 432,Vitória da Conquista,5,3
-14.782458543777,-40.6574821472156,Motorista 433,Vitória da Conquista,9,2
-6.70476078987102,-48.8871431350694,Motorista 434,Piçarra,8,1
-21.1224603652948,-48.4480333328233,Motorista 435,Taiúva,7,2
-23.2601273059838,-45.9320783615099,Motorista 436,Jacareí,5,3
-23.8134992122643,-48.3147811889634,Motorista 437,Itapetininga,8,2
-22.4438881874078,-48.0095243453966,Motorista 438,Brotas,9,1
-9.90958213806124,-55.7410669326766,Motorista 439,Carlinda,6,2
-29.956942,-51.635699,Motorista 440,Charqueadas,2,3
-21.8487489223474,-47.5014281272874,Motorista 441,Porto Ferreira,8,1
-22.8505647182458,-47.1652293205248,Motorista 442,Sumaré,7,2
-24717,-53084,Motorista 443,Iguatu,5,3
-25.1718556880944,-50.6599760055527,Motorista 444,Imbituva,4,1
-20.2966189384455,-42.481298446654,Motorista 445,Abre Campo,6,2
-23.4595012664788,-46.5095257759081,Motorista 446,Guarulhos,9,3
-23.4002351760857,-46.5103840827928,Motorista 447,Guarulhos,8,3
-6.87345027923564,-36.9273662567128,Motorista 448,Santa Luzia,5,2
-12.8658914566036,-39.8591065406788,Motorista 449,Milagres,4,1
-9.1585,-35.2953,Motorista 450,Porto de Pedras,5,1
-26.5467989444725,-49.1571235656724,Motorista 451,Jaraguá do Sul,9,2
-6.82080388069133,-39.5240664482105,Motorista 452,Farias Brito,8,3
-22.5050532817834,-44.1964530944811,Motorista 453,Barra Mansa,5,3
-28.2969939708702,-49.9413156509385,Motorista 454,São Joaquim,6,2
-9.45293068885776,-44.4073605537402,Motorista 455,Redenção do Gurguéia,8,1
-22.3276627063745,-48.802428245543,Motorista 456,Pederneiras,5,1
-16.7368125915522,-49.2606997489915,Motorista 457,Aparecida de Goiânia,2,2
-11.0124206542966,-44.5163440704333,Motorista 458,Santa Rita de Cássia,6,3
-15.8906614780421,-48.1121778488145,Motorista 459,Brasília,9,3
-7.86225199699379,-35.587956905364,Motorista 460,João Alfredo,8,2
-22.1858060359948,-42.9320383071887,Motorista 461,São José do Vale do Rio Preto,6,1
-19.3887662887568,-40.0653362274158,Motorista 462,Linhares,9,2
-13.4346807003017,-49.1451072692857,Motorista 463,Porangatu,8,3
-5.45990467071517,-37.5197911262501,Motorista 464,Governador Dix-Sept Rosado,7,2
-22.7452719211572,-43.5009241104113,Motorista 465,Nova Iguaçu,4,1
-28.8732075691215,-52.1815395355209,Motorista 466,Arvorezinha,5,2
-6.9586694240568,-35.5382180213918,Motorista 467,Alagoinha,6,3
-23.7589859962456,-46.8422055244432,Motorista 468,Itapecerica da Serra,9,2
-5.9832036495207,-35.4068326950063,Motorista 469,Macaíba,8,1
-19.7985005378717,-41.711697578429,Motorista 470,Ipanema,5,2
-22.4444997310632,-44.5201635360705,Motorista 471,Itatiaia,6,3
-19.3135142326349,-47.5274991989122,Motorista 472,Santa Juliana,9,2
-16.0040009021754,-39.9512028694141,Motorista 473,Salto da Divisa,8,1
-19.8307514190668,-43.8676786422717,Motorista 474,Belo Horizonte,5,2
-19.8019230365747,-43.9366865158068,Motorista 475,Belo Horizonte,6,3
-25.845289,-52.518747,Motorista 476,Chopinzinho,6,3
-27.0818459987633,-50.8920621871933,Motorista 477,Fraiburgo,6,3
-3.67068886756886,-42.1212816238391,Motorista 478,Esperantina,6,2
-1.44744,-45.7174,Motorista 479,Cândido Mendes,8,1
-26.8960654735557,-52.6041483879074,Motorista 480,Xaxim,7,2
-23548,-46636,Motorista 481,São Paulo,5,3
-3.88448238372791,-38.6738920211781,Motorista 482,Maranguape,8,2
-19.8156023025507,-43.9801812171923,Motorista 483,Belo Horizonte,4,1
-12.3567652702328,-60.9259271621686,Motorista 484,Chupinguaia,5,2
-26908,-48662,Motorista 485,Itajaí,8,3
-1.37045860290523,-61.8797850608808,Motorista 486,Caracaraí,5,2
-27.8533458709709,-55.0181365013107,Motorista 487,Porto Lucena,9,1
-23.9426207542412,-51.5902304649338,Motorista 488,Borrazópolis,8,2
-6.34676098823529,-39.3142318725575,Motorista 489,Iguatu,7,3
-21.7614805698388,-42.8901100158679,Motorista 490,Senador Cortes,5,1
-7.29317307472208,-37.236099243163,Motorista 491,Itapetim,8,2
-3.65784645080556,-45.3920531272875,Motorista 492,Santa Inês,9,3
-22.4737143516534,-45.607016086577,Motorista 493,Brasópolis,6,1
-3.3629322052001,-43.9737653732287,Motorista 494,Presidente Vargas,2,2
-26.3480794429771,-53.2795071601852,Motorista 495,Palma Sola,8,3
-19.950195550918,-44.1202783584582,Motorista 496,Betim,7,3
-4.86408948898301,-44.357085227965,Motorista 497,Santo Antônio dos Lopes,5,2
-28.6599290370933,-56.0212182998641,Motorista 498,São Borja,4,1
-17.1143388748164,-42.6978063583362,Motorista 499,Leme do Prado,6,1
-28.4294629096977,-49.0178203582749,Motorista 500,Tubarão,9,2
-19.8678624629969,-43.8931703567492,Motorista 501,Sabará,8,3
-8.9722037315366,-48.1716370582567,Motorista 502,Pedro Afonso,5,3
-21.8446719646448,-41.4317178726184,Motorista 503,Campos dos Goytacazes,4,2
-21.6749310493463,-49.7572731971726,Motorista 504,Lins,5,1
-2747,-42826,Motorista 505,Barreirinhas,9,1
-18.695222139358,-43.4376668930041,Motorista 506,Serro,8,2
-3.14810872077933,-44.3778991699206,Motorista 507,Santa Rita,5,3
-25408,-52416,Motorista 508,Laranjeiras do Sul,6,3
-20.6445872783655,-41.2084293365467,Motorista 509,Castelo,8,2
-25.4263758659355,-49.2772865295396,Motorista 510,Curitiba,5,1
-20.7325851917261,-42.8891015052783,Motorista 511,Viçosa,2,2
-4.98670935630784,-37.4862957000722,Motorista 512,Mossoró,6,3
-16.0503709316249,-48.0104255676256,Motorista 513,Valparaíso de Goiás,9,2
-8.85059237480138,-63.9409017562848,Motorista 514,Porto Velho,8,1
-15.9066081690324,-39.5602155476689,Motorista 515,Itapebi,6,2
-23.5941267013543,-46.917994022368,Motorista 516,Cotia,9,3
-5.52279710769637,-36.3874268531789,Motorista 517,Pedro Avelino,8,2
-19.5688176155085,-46.9434428215013,Motorista 518,Araxá,7,1
-12778,-38919,Motorista 519,Maragogipe,4,2
-11.3820183277127,-41.8319678306567,Motorista 520,Lapão,5,3
-17.5455522537226,-39.7118639945972,Motorista 521,Teixeira de Freitas,6,2
-7.04809427261332,-43.5628080368029,Motorista 522,Jerumenha,9,1
-5.98949074745161,-42.556400299071,Motorista 523,Hugo Napoleão,8,2
-23.1330227851861,-47.2434854507433,Motorista 524,Indaiatuba,5,3
-1.94110393524164,-47.0515251159654,Motorista 525,Garrafão do Norte,6,3
-21.2463891506189,-45.0206422805773,Motorista 526,Lavras,9,3
-8.75333547592138,-37.3431515693654,Motorista 527,Tupanatinga,8,2
-1.81716442108149,-60.317602157591,Motorista 528,Presidente Figueiredo,5,1
-4.6858727931975,-41.7964553832996,Motorista 529,Capitão de Campos,6,2
-23.9640784263604,-46.25123977661,Motorista 530,Guarujá,6,3
-5.26676416397079,-47.8677964210496,Motorista 531,Cidelândia,6,2
-17.685952654857,-40.111893061932,Motorista 532,Ibirapuã,6,1
-11.8344426155087,-39.6120214462269,Motorista 533,Pé de Serra,8,2
-7.08098888397196,-40.8604073524463,Motorista 534,São Julião,7,3
-2.53602862358086,-44.0597677230822,Motorista 535,São José de Ribamar,5,2
-28.3637166023246,-49.2849898338304,Motorista 536,Orleans,8,1
-1.58460617065425,-48.8690328598008,Motorista 537,Abaetetuba,4,2
-14.3419861793514,-41.7696118354785,Motorista 538,Malhada de Pedras,5,3
-11.650614738464,-38.7447023391712,Motorista 539,Biritinga,8,1
-22.760013341903,-51.3969397544846,Motorista 540,Porecatu,5,2
-18.5726451873774,-51.1423015594468,Motorista 541,Caçu,9,3
-27.1821391582481,-51.9210433959946,Motorista 542,Concórdia,8,1
-22.3096060752862,-53.8217425346359,Motorista 543,Ivinhema,7,2
-9884,-36829,Motorista 544,Girau do Ponciano,5,3
-6.21548295021039,-39.297215938567,Motorista 545,Iguatu,8,3
-30.0838923454276,-52.7647590637192,Motorista 546,Cachoeira do Sul,9,2
-15.0815463066097,-41.965649127959,Motorista 547,Cordeiros,6,1
-3.55123400688161,-43.9245629310595,Motorista 548,Vargem Grande,2,1
-1.52579069137569,-50.6197214126572,Motorista 549,Breves,8,2
-12.0487189292904,-38.6081027984608,Motorista 550,Ouriçangas,7,3
-3.66376876831044,-45.9970736503588,Motorista 551,Bom Jardim,5,3
-4.98553991317735,-42.6411366462695,Motorista 552,Teresina,4,2
-12.2344779968258,-38.979878425597,Motorista 553,Feira de Santana,6,1
-1.67157411575313,-49.3849825859055,Motorista 554,Muaná,9,1
-8.37528347969031,-35.8718848228444,Motorista 555,Bezerros,8,2
-27.6916837692253,-48.6584258079515,Motorista 556,Palhoça,5,3
-14.3868649005886,-41.8806123733508,Motorista 557,Malhada de Pedras,4,3
-0.61852812767027,-49.9252223968491,Motorista 558,Anajás,5,2
-16.1073946952815,-49.3363165855393,Motorista 559,Petrolina de Goiás,9,1
-23.3481681346887,-47.6884102821336,Motorista 560,Iperó,8,2
-22.1619665622705,-42.6639676094043,Motorista 561,Sumidouro,5,3
-6.27449154853803,-35.2133703231801,Motorista 562,Goianinha,6,2
-12.855151891708,-38.3570265769947,Motorista 563,Lauro de Freitas,8,1
-17.2901201248164,-49.3770861625657,Motorista 564,Cromínia,5,2
-1.30000233650204,-47.88552045822,Motorista 565,Castanhal,2,3
-21.9417464733117,-46.3347959518419,Motorista 566,Caldas,6,2
-4.37630295753466,-44.3407130241381,Motorista 567,Peritoró,9,1
-5.02336978912339,-44.9936914443957,Motorista 568,São Roberto,8,2
-26.8511760234825,-52.2653317451462,Motorista 569,Faxinal dos Guedes,6,3
-14.6377801895137,-42.0497202873218,Motorista 570,Guajeru,9,2
-4.55461621284472,-37.76938676834,Motorista 571,Aracati,8,1
-3.70197415351857,-40.3651428222645,Motorista 572,Sobral,7,2
-13.8442218303676,-40.620081424712,Motorista 573,Maracás,4,3
-22.816279,-43.385535,Motorista 574,Rio de Janeiro,5,3
-28.4631407260887,-49.016382694243,Motorista 575,Tubarão,6,3
-23.8776576519006,-46.6502237319933,Motorista 576,São Paulo,9,2
-9.67364430427523,-37.1254205703725,Motorista 577,Batalha,8,1
-11864,-55504,Motorista 578,Sinop,5,2
-18615,-40611,Motorista 579,Vila Pavão,6,3
-12.8442835807797,-39.5015573501575,Motorista 580,Santa Teresinha,9,2
-8.40806007385229,-40.8771657943714,Motorista 581,Afrânio,8,1
-15.6603348255153,-56.0490059852584,Motorista 582,Cuiabá,5,2
-4.72787618637071,-44.3189120292651,Motorista 583,Capinzal do Norte,6,3
-15.9141576290126,-46.1062717437731,Motorista 584,Arinos,6,2
-20.3299748897547,-47.7738332748399,Motorista 585,Ituverava,6,1
-7.20662355422953,-35.8975267410268,Motorista 586,Campina Grande,6,2
-22759,-43451,Motorista 587,Nova Iguaçu,8,3
-7.24883079528788,-35.900809764861,Motorista 588,Campina Grande,7,1
-7.18469381332377,-35.9857821464528,Motorista 589,Campina Grande,5,2
-20.5347776412958,-44.6343398094164,Motorista 590,Carmópolis de Minas,8,3
-26721,-48933,Motorista 591,Luiz Alves,4,1
-2.97731637954703,-47.3461174964891,Motorista 592,Paragominas,5,2
-21.6743946075433,-49.7261381149278,Motorista 593,Lins,8,3
-6.68216586112957,-39.7583627700794,Motorista 594,Tarrafas,5,3
-32.0625364780417,-52.2646021842941,Motorista 595,Rio Grande,9,2
-32.0890581607809,-52.1613049507126,Motorista 596,Rio Grande,8,1
-7.23250150680521,-39.3511390686024,Motorista 597,Juazeiro do Norte,7,1
-16.0656058788295,-57.6827931404097,Motorista 598,Cáceres,5,2
-29.9929010868064,-51.1938643455491,Motorista 599,Porto Alegre,8,3
-30.0705885887137,-51.1699390411362,Motorista 600,Porto Alegre,9,3
-22.4888956546777,-44.5734643936144,Motorista 601,Itatiaia,6,2
-22786,-43312,Motorista 602,Duque de Caxias,2,1
-22903,-43208,Motorista 603,Rio de Janeiro,8,1
3652,-61371,Motorista 604,Amajari,7,2
-27655,-54764,Motorista 605,Alecrim,5,3
-16.7997050285334,-49.3091940879807,Motorista 606,Aparecida de Goiânia,4,3
-6.06927037239057,-35.6131482124318,Motorista 607,Senador Elói de Souza,6,2
-11.8252372741696,-62.9231214523297,Motorista 608,Seringueiras,9,1
-13.6559307575222,-59.789357185362,Motorista 609,Comodoro,8,2
-14.532819986343,-49.9589538574204,Motorista 610,Crixás,5,3
-19.9864268302912,-44.8490452766405,Motorista 611,São Gonçalo do Pará,4,2
-19.7368311882013,-51.9355702400192,Motorista 612,Inocência,5,1
-22.6664042472833,-43.0204010009753,Motorista 613,Guapimirim,9,2
-28.6888325214378,-49.4087791442857,Motorista 614,Criciúma,8,3
-7.95819997787452,-36.1817336082448,Motorista 615,Santa Cruz do Capibaribe,5,2
-23057,-49626,Motorista 616,Ipaussu,6,1
-20074,-41124,Motorista 617,Afonso Cláudio,8,2
-18.4173989295954,-43.5264587402331,Motorista 618,Diamantina,5,3
-12.8642151342321,-39.8621390072495,Motorista 619,Milagres,2,2
-27.6478135585777,-52.2753310203537,Motorista 620,Erechim,6,1
-2.45576620101922,-44.1515421867358,Motorista 621,Raposa,9,2
-23.0333304405206,-49.163539409636,Motorista 622,Cerqueira César,8,3
4596,-60168,Motorista 623,Uiramutã,6,3
-19.4377326965326,-42.0793962478625,Motorista 624,Inhapim,9,3
-21.6826987266534,-45.2562260627733,Motorista 625,Três Corações,8,2
-3.5039734840392,-40.9461307525623,Motorista 626,Viçosa do Ceará,7,1
-28.9776420593253,-49.4062471389756,Motorista 627,Balneário Arroio do Silva,4,2
-7.20301866531351,-39.3055200576771,Motorista 628,Juazeiro do Norte,5,3
-3.0430305004119,-59.9343037605268,Motorista 629,Manaus,6,2
-22.2727632522577,-54.1636919975265,Motorista 630,Deodápolis,9,1
-20264,-40.42,Motorista 631,Cariacica,8,2
-19.9239099025721,-40.1714229583729,Motorista 632,Aracruz,5,3
-26.2032830715172,-50.4214096069321,Motorista 633,Canoinhas,6,2
-22.1054255962365,-50.1671791076646,Motorista 634,Pompéia,9,1
-4.30659770965564,-40.8200240135181,Motorista 635,Guaraciaba do Norte,8,2
-8.16679000854468,-35.0063681602468,Motorista 636,Jaboatão dos Guararapes,5,3
-6.1938536167143,-47.853806018828,Motorista 637,Luzinópolis,6,1
-19.6865558624262,-44.1747164726244,Motorista 638,Esmeraldas,6,2
-9.95185375213594,-54.9061489105209,Motorista 639,Guarantã do Norte,6,3
-5.51171422004684,-41.8974995613086,Motorista 640,São João da Serra,6,1
-5.55449008941634,-37.3614764213551,Motorista 641,Upanema,8,2
-3.12911868095389,-58.1569647788985,Motorista 642,Urucurituba,7,3
-7.69057989120461,-34.8597693443288,Motorista 643,Goiana,5,3
-23.4368956089013,-45.0801014900194,Motorista 644,Ubatuba,8,2
-7.1338927745817,-34.9397420883169,Motorista 645,Bayeux,4,1
-11.6089868545529,-40.2960920333851,Motorista 646,Mairi,5,1
-29.6892321109763,-53.8279438018783,Motorista 647,Santa Maria,8,2
-13.7968647480007,-42.8010392189013,Motorista 648,Matina,5,3
-2.97405481338492,-45.3524422645556,Motorista 649,Pedro do Rosário,9,3
-4.84580755233751,-42.1544981002795,Motorista 650,Campo Maior,8,2
-3.9960730075835,-44.9738645553576,Motorista 651,Lago Verde,7,1
-12.7062241228364,-39.7255159164542,Motorista 652,Itatim,5,1
-30.2880728244773,-50.2498555183396,Motorista 653,Balneário Pinhal,8,2
-28.8273847103111,-52.4943065643295,Motorista 654,Soledade,9,3
-27.4163174629203,-49.5976710319505,Motorista 655,Ituporanga,6,3
-7576,-40498,Motorista 656,Araripina,2,2
-8.05135846137977,-34.9372744560232,Motorista 657,Recife,8,1
-13.5143337202749,-41.5923088021702,Motorista 658,Jussiape,7,2
-27.9861259460441,-55.0472545623763,Motorista 659,São Paulo das Missões,5,3
-5.61965703964217,-63.1862354278546,Motorista 660,Tapauá,4,2
-11.7967844009396,-39.2699432373035,Motorista 661,Riachão do Jacuípe,6,1
-28.6631476879112,-51.75199985504,Motorista 662,Nova Araçá,9,2
-30.0320398807517,-55.0899338722213,Motorista 663,Cacequi,8,3
-22.7958798408502,-47.3004770278917,Motorista 664,Nova Odessa,5,2
-27.172762155532,-51.4971685409531,Motorista 665,Herval d'Oeste,4,1
-28.2911789417259,-48.9005327224717,Motorista 666,Imaruí,5,2
-3.66663336753835,-42.7892374992358,Motorista 667,Brejo,9,3
-20.2403783798212,-56.3934016227706,Motorista 668,Miranda,8,2
-21.1284255981439,-46.6167497634874,Motorista 669,São Pedro da União,5,1
-2.05987215042108,-47.9775738716111,Motorista 670,Concórdia do Pará,6,2
-15.8657598495479,-52.3234820365891,Motorista 671,Barra do Garças,8,3
-4.97873783111558,-42.2663784027087,Motorista 672,Coivaras,5,3
-18.7857627868647,-52.6209068298325,Motorista 673,Chapadão do Sul,2,3
-4.25307154655444,-38.5564970970143,Motorista 674,Chorozinho,6,2
-29.7578966617576,-51.8931055068955,Motorista 675,Taquari,9,1
-7.98130989074684,-35.6307435035695,Motorista 676,Passira,8,2
-25.3768730163567,-49.128413200377,Motorista 677,Colombo,6,3
-25941,-52176,Motorista 678,Mangueirinha,9,2
-16.4800500869746,-43.4992289543139,Motorista 679,Francisco Sá,8,1
-16.4763700962062,-42.5112748146045,Motorista 680,Josenópolis,7,2
-20.103650093078,-44.972147941588,Motorista 681,Divinópolis,4,3
-9.4819521903989,-36.9652390480031,Motorista 682,Cacimbinhas,5,2
-5.53175568580611,-40.7856917381275,Motorista 683,Novo Oriente,6,1
-7.47764468193032,-36.1375308036794,Motorista 684,Boqueirão,9,2
-7.92001605033852,-42.4063038825976,Motorista 685,Socorro do Piauí,8,1
-30.0090157985679,-51.1219596862778,Motorista 686,Porto Alegre,5,2
-7.19182848930338,-35.7435035705556,Motorista 687,Massaranduba,6,3
-22.2155785560601,-46.5330648422228,Motorista 688,Jacutinga,9,1
-6.41013622283917,-41.7375326156604,Motorista 689,Valença do Piauí,8,2
-22.5498354434961,-45.7722187042223,Motorista 690,Paraisópolis,5,3
-3.19564819335928,-58.7420940399153,Motorista 691,Itacoatiara,6,3
-12.8219780247251,-44.1234867599371,Motorista 692,Serra Dourada,6,2
-22.808051,-43.439995,Motorista 693,Mesquita,6,1
-6.71024322509746,-35.7197499275197,Motorista 694,Solânea,6,1
-20.3643715381616,-44.6870613098132,Motorista 695,Cláudio,8,2
-4.96140003204331,-38.5288166999806,Motorista 696,Ibicuitinga,7,3
-7.81991600990273,-50.1453781127915,Motorista 697,Pau D'Arco,5,3
-1.54707670211788,-45.8667826652514,Motorista 698,Godofredo Viana,8,2
-6.76913380622844,-36.7320585250844,Motorista 699,Santana do Seridó,4,1
-17.3522186279292,-44.9223232269274,Motorista 700,Pirapora,5,1
-15.9407436847682,-50.1531028747544,Motorista 701,Goiás,8,2
-13.030385971069,-55.257561206816,Motorista 702,Nova Ubiratã,5,3
-27.2865629196159,-48.8514375686631,Motorista 703,São João Batista,9,3
-26.8603813648216,-49.0958404541001,Motorista 704,Blumenau,8,2
-25.7600963115685,-49.7275114059434,Motorista 705,Lapa,7,1
-3.865406513214,-38.632993698119,Motorista 706,Maracanaú,5,2
-9.42787885665866,-62.0074582099897,Motorista 707,Machadinho D'Oeste,8,3
-21.142308712005,-46.3443231582628,Motorista 708,Nova Resende,9,2
-6.98133945465068,-39.3191027641285,Motorista 709,Caririaçu,6,1
-7.56072878837564,-35.452172756194,Motorista 710,Macaparana,2,2
-21.2205433845514,-50.873630046843,Motorista 711,Valparaíso,8,3
-29.8341464996329,-52.0074319839462,Motorista 712,General Câmara,7,2
-27.7869987487785,-52.7891778945908,Motorista 713,Ronda Alta,5,1
-13.651928901672,-41.2700343132007,Motorista 714,Barra da Estiva,4,2
-8.07952165603614,-39.1175293922413,Motorista 715,Salgueiro,6,3
-19.7275292873377,-45.2650022506701,Motorista 716,Bom Despacho,9,2
-22.0895576477044,-50.1896882057175,Motorista 717,Pompéia,8,1
-20658,-40511,Motorista 718,Guarapari,5,2
-20.2636492252344,-50.5535244941697,Motorista 719,Jales,4,3
-7.20963835716227,-39.6397662162769,Motorista 720,Santana do Cariri,5,3
-19.4565188884729,-44.2525863647448,Motorista 721,Sete Lagoas,9,3
-31588,-52633,Motorista 722,Morro Redondo,8,2
-4.97627019882188,-38.5717105865467,Motorista 723,Ibicuitinga,5,1
-29.029086828231,-51.310744285582,Motorista 724,Nova Pádua,6,2
-27.7000093460075,-54.5987892150863,Motorista 725,Tuparendi,8,3
-0.741920471191385,-47.2919154167162,Motorista 726,São João de Pirabas,5,2
-22903,-43208,Motorista 727,Rio de Janeiro,2,1
-11.6541230678555,-41.9923210144031,Motorista 728,Ibipeba,6,2
-16679,-49254,Motorista 729,Goiânia,9,3
-31.7201793193808,-52.3052644729599,Motorista 730,Pelotas,8,2
-11.2325012683865,-37.6455974578846,Motorista 731,Arauá,6,1
-20.3680193424219,-42.8409719467151,Motorista 732,Ponte Nova,9,2
-22.7372682094567,-52.3449397087082,Motorista 733,Santo Antônio do Caiuá,8,3
-19.7819674015039,-42.1285128593433,Motorista 734,Caratinga,7,1
-4.26692247390735,-40.7780528068531,Motorista 735,Ipu,4,2
-12.7553308010098,-60.1641368865949,Motorista 736,Vilhena,5,3
-24.4963788986199,-50.7036209106431,Motorista 737,Imbaú,6,1
-9.23681974410984,-37.9592871665944,Motorista 738,Água Branca,9,2
-26208,-50938,Motorista 739,Paula Freitas,8,3
-24556,-54057,Motorista 740,Marechal Cândido Rondon,5,3
-6.43601417541485,-36.827630996703,Motorista 741,Cruzeta,6,2
-17.3159658908839,-48.4844684600816,Motorista 742,Santa Cruz de Goiás,9,1
-20319,-40338,Motorista 743,Vitória,8,1
-7.08455085754374,-37.4432945251454,Motorista 744,Santa Teresinha,5,2
-5.30479788780197,-44.4915390014636,Motorista 745,Presidente Dutra,6,3
-23.012688159942,-44.5436382293688,Motorista 746,Angra dos Reis,6,3
-28.8837218284599,-52.9987335205063,Motorista 747,Campos Borges,6,2
-7.76717305183388,-35.8483672142018,Motorista 748,Vertente do Lério,6,1
-19.1110503673548,-44.2081904411303,Motorista 749,Cordisburgo,8,1
-23.0099737644189,-46.8632555007921,Motorista 750,Itatiba,7,2
-10.9036302566525,-37.0789861679066,Motorista 751,Aracaju,5,3
-26.2432694435112,-49.3498563766465,Motorista 752,São Bento do Sul,8,3
-27.9959321022026,-48.6485552787767,Motorista 753,Garopaba,4,2
-15.0531685352321,-41.4052820205676,Motorista 754,Tremedal,5,1
-2.48873591423027,-44.1461992263781,Motorista 755,Paço do Lumiar,8,2
-16.1566829681392,-42.2845101356494,Motorista 756,Salinas,5,3
-28.9319479465476,-54.8278927803024,Motorista 757,Santiago,9,2
-28.9461958408347,-49.4773578643784,Motorista 758,Araranguá,8,1
-6.11789345741254,-38.1977462768544,Motorista 759,Pau dos Ferros,7,2
-5.45507669448837,-40.4982233047474,Motorista 760,Independência,5,3
-20.4665744304651,-50.608155727385,Motorista 761,Dirce Reis,8,2
-21.2331068515771,-49.6418309211717,Motorista 762,Adolfo,9,1
-23.4733521938317,-46.2885117530809,Motorista 763,Itaquaquecetuba,6,2
-10.4674065113065,-55.4462385177596,Motorista 764,Colíder,2,3
-22.719490528106,-42.6336693763721,Motorista 765,Rio Bonito,8,2
-20.5449807643884,-48.5519742965684,Motorista 766,Barretos,7,1
-29.6209430694571,-52.2069025039658,Motorista 767,Venâncio Aires,5,2
-8.77817273139928,-36.6226243972768,Motorista 768,Caetés,4,3
-18.9777231216425,-41.6486334800708,Motorista 769,Tumiritinga,6,3
-9.35695052146884,-40.542104244231,Motorista 770,Petrolina,9,3
-21.4575004577631,-46.9914221763597,Motorista 771,Mococa,8,2
-11.8142294883725,-37.6080894470204,Motorista 772,Conde,5,1
-7.09287643432597,-39.7291803359974,Motorista 773,Nova Olinda,4,2
-27.5406324863426,-51.1730504035935,Motorista 774,Campos Novos,5,3
-21.2036669254297,-50.1752042770371,Motorista 775,Glicério,9,2
-7.24941015243509,-39.1592001914967,Motorista 776,Missão Velha,8,1
-7.37803816795328,-37.1906518936146,Motorista 777,Itapetim,5,2
-28.9402198791495,-51.5612196922287,Motorista 778,Veranópolis,6,3
-2.62149453163139,-45.1569414138781,Motorista 779,Pinheiro,8,2
-6.05385303497297,-36.4491391181935,Motorista 780,Lagoa Nova,5,1
-22839,-42103,Motorista 781,São Pedro da Aldeia,2,2
-26.267336,-51.103463,Motorista 782,União da Vitória,6,3
3.64452123641957,-60.9756445884687,Motorista 783,Amajari,9,1
-3.82914304733265,-39.6185660362232,Motorista 784,Tejuçuoca,8,2
-10176,-48867,Motorista 785,Paraíso do Tocantins,6,3
-9741,-36503,Motorista 786,Limoeiro de Anadia,9,1
-28.6701107025138,-52.266190052031,Motorista 787,Soledade,8,2
-29.6874618530265,-51.0435533523545,Motorista 788,Campo Bom,7,3
-6.12507104873639,-38.4442090988148,Motorista 789,Doutor Severiano,4,3
-5.34186601638778,-41.2847328186023,Motorista 790,Buriti dos Montes,5,2
-22.444456815719,-46.9505667686449,Motorista 791,Mogi Mirim,6,1
-22786,-43312,Motorista 792,Duque de Caxias,9,1
-24.8502588272088,-48.092093467711,Motorista 793,Jacupiranga,8,2
-21.7838609218591,-48.1566381454454,Motorista 794,Araraquara,5,3
-25.8121848106377,-48.5478758811937,Motorista 795,Matinhos,6,3
-11.5166652202603,-38.9055919647206,Motorista 796,Teofilândia,9,2
-29.6932983398429,-53.8069367408737,Motorista 797,Santa Maria,8,1
-7576,-40498,Motorista 798,Araripina,5,1
-16.0862481594081,-49.4931507110581,Motorista 799,Santa Rosa de Goiás,6,2
-23.0545198917382,-49.6298789978013,Motorista 800,Ipaussu,6,3
-20.5329108238214,-50.4933786392197,Motorista 801,General Salgado,6,3
-2.05141782760614,-47.5437426567064,Motorista 802,Mãe do Rio,6,2
-10708,-48417,Motorista 803,Porto Nacional,8,1
-6.73759102821331,-37.5668907165516,Motorista 804,Vista Serrana,7,2
-20.6773746013635,-43.309414386748,Motorista 805,Piranga,5,3
-19.896336793899,-44.0925550460803,Motorista 806,Contagem,8,2
-10.805740356445,-37.1451401710499,Motorista 807,Laranjeiras,4,1
-23961,-46334,Motorista 808,Santos,5,2
3.99731755256641,-60.1784062385542,Motorista 809,Normandia,8,3
-19.6183848381037,-45.9939193725573,Motorista 810,Santa Rosa da Serra,5,2
-16.2820279598231,-39.0308618545521,Motorista 811,Santa Cruz Cabrália,9,1
-7.25483894348123,-34.9037146568288,Motorista 812,Conde,8,2
-4.0829551219939,-38.2291603088368,Motorista 813,Cascavel,7,3
-5.60865998268111,-36.9084405899037,Motorista 814,Açu,5,2
-26.9044125080101,-52.7049994468674,Motorista 815,Coronel Freitas,8,1
-19.9414837360376,-42.9357290267932,Motorista 816,São Domingos do Prata,9,2
-5.72058320045455,-40.4152035713184,Motorista 817,Independência,6,3
-27.0934331417076,-52.5946855545029,Motorista 818,Chapecó,2,3
-14.2978370189663,-39.5623683929432,Motorista 819,Gongogi,8,3
-16.084606647491,-44.0836715698229,Motorista 820,Patis,7,2
-10.263258218765,-43.8931703567492,Motorista 821,Avelino Lopes,5,1
-9.64145779609652,-36.4764976501454,Motorista 822,Taquarana,4,2
-19.7947347164148,-44.0259718894946,Motorista 823,Ribeirão das Neves,6,3
-20.0150084495539,-41.645243167876,Motorista 824,Chalé,9,2
-15.8655,-50.8684,Motorista 825,Jussara,8,1
-2.75869488716117,-42.2748112678516,Motorista 826,Tutóia,5,2
-14.8165762424465,-39.3015074729908,Motorista 827,Itabuna,4,3
-15.7956576347346,-43.3143711090075,Motorista 828,Janaúba,5,2
-22.5008261203759,-47.5864648818956,Motorista 829,Rio Claro,9,1
-19.7127449512476,-42.2712492942798,Motorista 830,Bom Jesus do Galho,8,2
-25.6485593318932,-49.3003535270677,Motorista 831,Fazenda Rio Grande,5,3
-23463,-46533,Motorista 832,Guarulhos,6,1
-25395,-51458,Motorista 833,Guarapuava,8,2
-7.63656020164468,-37.8786063194264,Motorista 834,Tavares,5,3
-19.5753622055048,-43.9179539680468,Motorista 835,Lagoa Santa,2,1
-8.05898666381812,-34.932017326354,Motorista 836,Recife,6,2
-22.7437055110925,-43.6865973472583,Motorista 837,Seropédica,9,3
-1.93740248680109,-45.778827667235,Motorista 838,Governador Nunes Freire,8,3
-15.8169865608211,-40.2255177497852,Motorista 839,Itarantim,6,2
-21.5015101432794,-50.3182625770554,Motorista 840,Braúna,9,1
-6.23102903366071,-42.700831890105,Motorista 841,Regeneração,8,1
-6.02974534034712,-38.3487010002125,Motorista 842,Ererê,7,2
-17.8731250762934,-44.1755533218371,Motorista 843,Buenópolis,4,3
-19.67894911766,-44.8877978324877,Motorista 844,Pitangui,5,3
-20.4780113697046,-45.9699082374559,Motorista 845,Piumhi,6,2
-28.8126218318931,-49.2313671112046,Motorista 846,Içara,6,1
-11.1308562755581,-62.367002964018,Motorista 847,Urupá,8,1
-10.0986671447751,-39.8684406280506,Motorista 848,Jaguarari,5,2
-21.1000263690942,-46.2046766281115,Motorista 849,Conceição da Aparecida,6,3
-13.8670742511745,-40.5001115798938,Motorista 850,Maracás,9,3
-2003,-49854,Motorista 851,Oeiras do Pará,8,2
-2.5943720340728,-49.5099949836717,Motorista 852,Mocajuba,5,1
-10.0879919528958,-39.4070148468006,Motorista 853,Uauá,6,2
-21.7815434932702,-46.5931463241564,Motorista 854,Poços de Caldas,6,3
-5.53487777709945,-47.4021649360643,Motorista 855,Davinópolis,6,2
-8.97233247756932,-38.225963115691,Motorista 856,Petrolândia,6,1
-15.4877614974971,-44.3862891197192,Motorista 857,Januária,8,2
-16.2775433063502,-48.9868354797349,Motorista 858,Anápolis,7,3
-7.68882036209084,-35.0460004806508,Motorista 859,Itaquitinga,5,2
-12.1568763256069,-39.7349309921253,Motorista 860,Ipirá,8,1
-5.20599603652939,-38.7384152412403,Motorista 861,Jaguaretama,4,2
-14.8713040351863,-40.582273006438,Motorista 862,Barra do Choça,5,3
-8.09091567993141,-39.5767021179188,Motorista 863,Parnamirim,8,2
-11.2043488025662,-38.0053138732899,Motorista 864,Itapicuru,5,1
-5.56372761726363,-47.4483847618089,Motorista 865,Imperatriz,9,2
-1.50833487510677,-48.6085581779466,Motorista 866,Barcarena,8,3
-17.0511674880977,-39.5501589775074,Motorista 867,Itamaraju,7,3
-22903,-43208,Motorista 868,Rio de Janeiro,5,3
-16.353857517242,-48.9137721061692,Motorista 869,Anápolis,8,2
-16.3143646717067,-48.9077425003038,Motorista 870,Anápolis,9,1
-21.3109123706811,-42.8536319732654,Motorista 871,Astolfo Dutra,6,2
-7.40237116813638,-44.0198135375964,Motorista 872,Landri Sales,2,3
-4.18059825897205,-38.1287384033192,Motorista 873,Beberibe,8,2
-11.1118018627164,-41.9678378105151,Motorista 874,Jussara,7,1
-22.9119765758508,-46.5524411201464,Motorista 875,Bragança Paulista,5,2
-21.1709225177759,-47.8269195556627,Motorista 876,Ribeirão Preto,4,3
-3.89412760734547,-41.9929647445666,Motorista 877,Batalha,6,2
-23.5487651824944,-46.7619109153734,Motorista 878,Osasco,9,1
-12.2402501106259,-56.1547923088057,Motorista 879,Ipiranga do Norte,8,2
-14.3069458007808,-39.2889118194569,Motorista 880,Ubaitaba,5,3
-7.0690369606016,-34.8489117622365,Motorista 881,Cabedelo,4,1
-24.0875244140618,-54.2036032676681,Motorista 882,Guaíra,5,2
-6.56102657318096,-35.2760910987844,Motorista 883,Jacaraú,9,3
-6.37211322784405,-39.2984390258778,Motorista 884,Iguatu,8,1
-19.5990943908686,-46.3906931877123,Motorista 885,Ibiá,5,2
-19.4881045818323,-46.5491151809679,Motorista 886,Ibiá,6,3
-21.0277140140527,-47.7580833435045,Motorista 887,Jardinópolis,8,3
-23.5337662696832,-47.1673321723924,Motorista 888,Mairinque,5,2
-6.52843236923199,-42.5098586082446,Motorista 889,Arraial,2,1
-12.7155911922451,-38.318166732787,Motorista 890,Camaçari,6,1
-11.4385914802548,-61.4611458778364,Motorista 891,Cacoal,9,2
-23.6510217189782,-51.2540745735154,Motorista 892,Califórnia,8,3
-23.0736815929406,-47.1955919265733,Motorista 893,Indaiatuba,6,3
-9781,-36094,Motorista 894,São Miguel dos Campos,9,2
0.0117909908294674,-51.0869193077073,Motorista 895,Macapá,8,1
-30.0782382488242,-51.1995720863327,Motorista 896,Porto Alegre,7,1
-21.3617241382593,-48.7642121314988,Motorista 897,Santa Adélia,4,2
-15.6358623504634,-47.8468751907335,Motorista 898,Brasília,5,3
-26.3465881347649,-53.5732841491684,Motorista 899,Dionísio Cerqueira,6,3
-15.6200265884395,-46.4174509048448,Motorista 900,Buritis,9,2
-25.489256,-49.231142,Motorista 901,Curitiba,8,1
-27.0714175701134,-51.6578650474533,Motorista 902,Catanduvas,5,2
-29.9803590774527,-51.1271953582749,Motorista 903,Porto Alegre,6,3
-1.97601556777948,-48.9660644531236,Motorista 904,Igarapé-Miri,9,2
-6.06859445571882,-38.0045413970936,Motorista 905,Portalegre,8,1
-6.13448,-35.4943,Motorista 906,Lagoa Salgada,5,2
-27.8537964820854,-53.7803292274459,Motorista 907,Santo Augusto,6,3
-23.1811094284051,-46.8678474426256,Motorista 908,Jundiaí,6,2
-11.9937980175015,-41.3367891311634,Motorista 909,Bonito,6,1
-0.926724672317478,-46.8560886383043,Motorista 910,Tracuateua,6,2
-4.27734017372119,-41.7768001556384,Motorista 911,Piripiri,8,3
-6.43804192543011,-41.4474678039539,Motorista 912,Lagoa do Sítio,7,2
-16.0623228549953,-54.8244380950912,Motorista 913,Juscimeira,5,1
-3.06918740272513,-59.952521324156,Motorista 914,Manaus,8,2
-7.35564708709695,-43.4020471572863,Motorista 915,Jerumenha,4,3
-22.7589511871331,-42.8647041320788,Motorista 916,Itaboraí,5,3
-7.1398365497587,-34.9854683876027,Motorista 917,Santa Rita,8,3
-22.266883850097,-54.2267131805404,Motorista 918,Deodápolis,5,2
-26.3997602462761,-52.7275514602646,Motorista 919,Jupiá,9,1
-8.02514791488624,-34.8828363418569,Motorista 920,Recife,8,2
-8.075506,-34.920726,Motorista 921,Recife,7,3
-7.52494812011697,-39.1786623001087,Motorista 922,Porteiras,5,2
-9.84834194183321,-36.5412783622731,Motorista 923,São Sebastião,8,1
-9.42095875740024,-36.9599604606618,Motorista 924,Cacimbinhas,9,2
-30.9126842021933,-51.5008807182297,Motorista 925,Arambaré,6,3
-20.5142319202417,-43.6872839927661,Motorista 926,Ouro Branco,2,2
-28.387019634246,-51.8474221229538,Motorista 927,David Canabarro,8,1
-2.00429677963251,-54.0776038169845,Motorista 928,Monte Alegre,7,2
-6.28074645996076,-35.3775000572194,Motorista 929,Passagem,5,3
-5.51688551902755,-36.3970184326161,Motorista 930,Pedro Avelino,4,1
-29.8482441902152,-51.1275386810288,Motorista 931,Sapucaia do Sul,6,2
-26.8368315696709,-49.1023635864244,Motorista 932,Blumenau,9,3
-5.93284249305708,-35.5468440055837,Motorista 933,Macaíba,8,1
-15.8975279331203,-40.181357860564,Motorista 934,Jordânia,5,2
-29.6722912788382,-53.8163781166061,Motorista 935,Santa Maria,4,3
-16.9355106353755,-40.6847333908069,Motorista 936,Santa Helena de Minas,5,3
-6.77784562110881,-37.8018522262562,Motorista 937,Pombal,9,2
-22.3170840740197,-46.4702153205858,Motorista 938,Ouro Fino,8,1
-20.8642601966852,-42.2460579872119,Motorista 939,Vieiras,5,1
-8.20610046386695,-34.9604487419118,Motorista 940,Jaboatão dos Guararapes,6,2
-2.98539519309989,-41.7938804626453,Motorista 941,Parnaíba,8,3
-13.5527408123012,-52.27610349655,Motorista 942,Canarana,5,3
-23.9549052715295,-46.343636512755,Motorista 943,Santos,2,2
-11.1534941196438,-39.343328475951,Motorista 944,Santaluz,6,1
-4.71052765846239,-40.6702923774707,Motorista 945,Ararendá,9,1
-15.5481541156764,-47.3540353775011,Motorista 946,Formosa,8,2
-20.7533669471735,-43.7789082527148,Motorista 947,Conselheiro Lafaiete,6,3
-6.34132146835309,-42.8245139121997,Motorista 948,Amarante,9,3
-21.1999654769891,-43.972370624541,Motorista 949,Barroso,8,2
-2.56960988044731,-44.3100285530077,Motorista 950,São Luís,7,1
-20604,-41185,Motorista 951,Castelo,4,2
-7.7042484283445,-35.5841588973989,Motorista 952,Orobó,5,3
-10.1831889152524,-36.8358707427968,Motorista 953,Porto Real do Colégio,6,2
-9.49807763099643,-35.8172535896291,Motorista 954,Rio Largo,9,1
-23766,-53325,Motorista 955,Umuarama,8,2
-6.19119286537152,-40.1507163047779,Motorista 956,Arneiroz,5,3
-26.4770936965935,-52.5305271148666,Motorista 957,São Domingos,6,2
-7.67472267150857,-36.0012531280507,Motorista 958,Alcantil,9,1
2.83406496047965,-60.7011580467207,Motorista 959,Boa Vista,8,2
-28.3355641365043,-52.4216723442062,Motorista 960,Passo Fundo,5,3
-30.2518630027762,-54.9168562889083,Motorista 961,Rosário do Sul,6,2
-22.4272155761712,-42.0100879669177,Motorista 962,Rio das Ostras,6,1
-9.91624474525423,-36.3566136360158,Motorista 963,Teotônio Vilela,6,2
-5.57240724563582,-44.4387102127062,Motorista 964,São Domingos do Maranhão,6,3
-28.7537312507621,-49.2968559265122,Motorista 965,Içara,8,3
-20041,-40746,Motorista 966,Santa Maria de Jetibá,7,3
-26.4633929729454,-48.9172697067247,Motorista 967,Guaramirim,5,2
-20849,-41113,Motorista 968,Cachoeiro de Itapemirim,8,1
-25307,-48329,Motorista 969,Guaraqueçaba,4,2
-25.6457161903374,-50.9107732772812,Motorista 970,Rio Azul,5,3
-3.48943591117849,-44.6477079391466,Motorista 971,Arari,8,2
-20.322152,-40.349597,Motorista 972,Vitória,5,1
-21.8349409103387,-44.8057651519762,Motorista 973,Cruzília,9,2
-8.23569,-34.991049,Motorista 974,Cabo de Santo Agostinho,8,3
-15.6698405742641,-48.200690746306,Motorista 975,Brasília,7,2
-25408,-52416,Motorista 976,Laranjeiras do Sul,5,1
-29.8403584957114,-50.6678724288926,Motorista 977,Santo Antônio da Patrulha,8,2
-24.3170249462121,-47.6319980621324,Motorista 978,Juquiá,9,3
-29.5770943164817,-50.7752037048325,Motorista 979,Igrejinha,6,1
-22903,-43208,Motorista 980,Rio de Janeiro,2,2
-22.719116,-42.643872,Motorista 981,Rio Bonito,8,3
-21.4817583560937,-42.2495770454394,Motorista 982,Santo Antônio de Pádua,7,1
-22.1281814575189,-43.149297237395,Motorista 983,Três Rios,5,2
-4.45362567901598,-46.3252043724047,Motorista 984,Buriticupu,4,3
-5.87799668312056,-39.7744774818409,Motorista 985,Mombaça,6,3
-21575,-41911,Motorista 986,Cambuci,9,2
-23.1743931770318,-46.8865799903856,Motorista 987,Jundiaí,8,1
-20.6916010379785,-41.9230985641467,Motorista 988,Caiana,5,1
-8.23161363601661,-45.7788920402514,Motorista 989,Tasso Fragoso,4,2
-10.9472107887265,-37.4775624275197,Motorista 990,Itaporanga d'Ajuda,5,3
-21.5252208709711,-42.6392269134509,Motorista 991,Leopoldina,9,3
-20.5749142169946,-44.7085833549487,Motorista 992,Carmópolis de Minas,8,2
-10.6520283222195,-68.4986615180949,Motorista 993,Xapuri,5,1
-19.663295745849,-43.9758896827685,Motorista 994,Confins,6,1
-14.901312589645,-43.7525153160083,Motorista 995,Matias Cardoso,8,2
-15.6177949905391,-55.9961128234847,Motorista 996,Cuiabá,5,3
-9.64155435562106,-37.9192256927479,Motorista 997,Canindé de São Francisco,2,3
-22.7393066883081,-42.7314734458911,Motorista 998,Tanguá,6,2
-22.8911840915673,-42.9251074790942,Motorista 999,Maricá,9,1
-5.47953844070419,-36.7306852340688,Motorista 1000,Ipanguaçu,8,2
-6.59843802452068,-41.3154602050769,Motorista 1001,Lagoa do Sítio,6,3
-28.3505308628074,-49.2836165428147,Motorista 1002,Orleans,9,2
-23548,-46636,Motorista 1003,São Paulo,8,1
-8.02861332893348,-35.0017547607412,Motorista 1004,Camaragibe,7,2
-25408,-52416,Motorista 1005,Laranjeiras do Sul,4,3
-22.8478610515588,-42.998557090758,Motorista 1006,São Gonçalo,5,2
-22.8369712829583,-43.0643033981311,Motorista 1007,São Gonçalo,6,1
-21.1034917831415,-42.5959897041309,Motorista 1008,Miraí,9,2
-8.94149780273412,-39.3286299705494,Motorista 1009,Abaré,8,3
-8.44873309135413,-35.9524369239797,Motorista 1010,Agrestina,5,2
-9.53541398048373,-36.987190246581,Motorista 1011,Major Isidoro,6,1
-23.8064825534814,-46.0521984100329,Motorista 1012,Bertioga,9,2
-20234,-41511,Motorista 1013,Ibatiba,8,3
-4.04847264289844,-45.0951004028307,Motorista 1014,Olho d'Água das Cunhãs,5,3
-27.3921775817863,-51.2098932266221,Motorista 1015,Campos Novos,6,3
-2.20605254173272,-55.9485626220687,Motorista 1016,Juruti,6,2
-23832,-46811,Motorista 1017,Embu-Guaçu,6,1
-10058,-36817,Motorista 1018,Olho d'Água Grande,6,2
-14.8592233657833,-39.6579623222339,Motorista 1019,Floresta Azul,8,3
-19.8665106296534,-43.9434885978686,Motorista 1020,Belo Horizonte,7,2
-25.23,-50604,Motorista 1021,Imbituva,5,1
-21.9852411746972,-51.657092571257,Motorista 1022,Santo Anastácio,8,2
-8.58754277229284,-35.1200079917897,Motorista 1023,Sirinhaém,4,3
-24.3219280242913,-50.6344199180588,Motorista 1024,Telêmaco Borba,5,2
-24293,-53313,Motorista 1025,Formosa do Oeste,8,1
-6.94653511047343,-40.4417681694019,Motorista 1026,Fronteiras,5,2
-21.5674281120294,-51.3517284393296,Motorista 1027,Irapuru,9,3
-26396,-52471,Motorista 1028,Clevelândia,8,1
-11.4089477062222,-39.4632124900806,Motorista 1029,Valente,7,2
-15.4162538051601,-39.8492574691761,Motorista 1030,Itapetinga,5,3
-7576,-40498,Motorista 1031,Araripina,8,1
-19.9319672584528,-44.0284824371325,Motorista 1032,Contagem,9,2
-20.33,-40292,Motorista 1033,Vila Velha,6,3
-23.5557496547692,-46.2210917472826,Motorista 1034,Mogi das Cruzes,2,3
-29.1660296916953,-51.1906671524033,Motorista 1035,Caxias do Sul,8,2
-23.7117254734032,-46.8493938446031,Motorista 1036,Itapecerica da Serra,7,1
-22.5610578060144,-43.6850523948657,Motorista 1037,Engenheiro Paulo de Frontin,5,1
-19.1626667976374,-47.6764583587633,Motorista 1038,Nova Ponte,4,2
-30.8417022228232,-51.8185186386093,Motorista 1039,Camaquã,6,3
-23.5367381572717,-46.5955495834337,Motorista 1040,São Paulo,9,3
-7.98252224922157,-34.8989939689626,Motorista 1041,Olinda,8,2
-28.5859537124625,-54.6170067787155,Motorista 1042,São Miguel das Missões,5,1
-7.03329920768717,-35.9356999397267,Motorista 1043,Areial,4,1
-16.5642929077144,-49.7723364830003,Motorista 1044,Nazário,5,2
-19.2017412185663,-42.049934864043,Motorista 1045,Engenheiro Caldas,9,3
-9.28146243095371,-42.705702781676,Motorista 1046,São Raimundo Nonato,8,3
-16.3450920581813,-44.3273234367358,Motorista 1047,Brasília de Minas,5,2
-30.014444589614,-51.1576652526841,Motorista 1048,Porto Alegre,6,1
-19.9434900283808,-44.2714476585375,Motorista 1049,Betim,8,2
-6.27930879592877,-35.4984354972829,Motorista 1050,Serrinha,5,3
-4.42391753196703,-41.7980217933643,Motorista 1051,Piripiri,2,2
-23.5475850105279,-48.2387781143174,Motorista 1052,Itapetininga,6,1
-26.23,-51086,Motorista 1053,União da Vitória,9,2
-31.7033886909476,-52.3341250419601,Motorista 1054,Pelotas,8,3
-20.4729366302484,-54.5511960983261,Motorista 1055,Campo Grande,6,2
-24.4143569469445,-53.6564540863022,Motorista 1056,Assis Chateaubriand,9,1
-27.1509289741508,-48.9267110824571,Motorista 1057,Brusque,8,2
-23.6838841438287,-46.5755081176744,Motorista 1058,São Bernardo do Campo,7,3
-22.7966201305383,-47.2788047790514,Motorista 1059,Sumaré,4,2
-23.7785768508904,-46.5285372734056,Motorista 1060,São Bernardo do Campo,5,1
-23.4972774982446,-46.5548014640795,Motorista 1061,Guarulhos,6,2
-21.7690873146051,-52.1444177627548,Motorista 1062,Presidente Epitácio,9,3
-14.29164992133,-43.7781849167469,Motorista 1063,Carinhanha,8,3
-24956,-53455,Motorista 1064,Cascavel,5,3
-23.0819427967065,-47.2146892547594,Motorista 1065,Indaiatuba,6,2
-23.7107706069939,-46.652884483336,Motorista 1066,São Paulo,9,1
-18.3241546154017,-44.1198706626879,Motorista 1067,Monjolos,8,2
-12.3093330860134,-38.7436509132374,Motorista 1068,Conceição do Jacuípe,5,3
-9.34213399887058,-35.6292414665212,Motorista 1069,São Luís do Quitunde,6,2
-3.20790052413931,-52.2254204750046,Motorista 1070,Altamira,6,1
-28.5371696948997,-52.9908800125107,Motorista 1071,Colorado,6,2
-18863,-41123,Motorista 1072,Mantenópolis,6,3
-13.3842229843136,-42.2626876831042,Motorista 1073,Paramirim,8,2
-12.5085997581478,-38.5043334960926,Motorista 1074,São Sebastião do Passé,7,1
-28.2683908939353,-54.4708156585678,Motorista 1075,Santo Ângelo,5,2
-17.0797169208522,-44.2053365707385,Motorista 1076,Claro dos Poções,8,3
-15.6196832656856,-40.2641415595997,Motorista 1077,Maiquinique,4,1
-29.0618956089011,-51.2608766555771,Motorista 1078,Flores da Cunha,5,2
-20.3844988346094,-42.2496843338,Motorista 1079,Santa Margarida,8,3
-21.7180824279779,-43.9269018173205,Motorista 1080,Lima Duarte,5,1
-19.8989546298975,-44.0272164344775,Motorista 1081,Contagem,9,2
-31.3378357887259,-54.0767240524276,Motorista 1082,Bagé,8,3
-22.0115375518792,-49.789931774138,Motorista 1083,Júlio Mesquita,7,3
-22.6071596145623,-46.7034387588487,Motorista 1084,Serra Negra,5,2
-25043,-52.68,Motorista 1085,Diamante do Sul,8,1
-6.94135308265666,-49.6984791755662,Motorista 1086,Sapucaia,9,1
-2.4241375923156,-54.7143816947921,Motorista 1087,Santarém,6,2
-15.587153434753,-42.9268884658801,Motorista 1088,Porteirinha,2,3
-23.4758305549615,-46.6304183006273,Motorista 1089,São Paulo,8,3
-25856,-52523,Motorista 1090,Chopinzinho,7,2
-23.2639253139489,-51.1418938636765,Motorista 1091,Londrina,5,1
-23.6124300956719,-46.6039395332323,Motorista 1092,São Paulo,4,1
-23.749136924743,-47.530524730681,Motorista 1093,Piedade,6,2
-15.1514339447017,-49.5741534233079,Motorista 1094,Nova Glória,9,3
-21.484515666961,-44.3262076377856,Motorista 1095,Madre de Deus de Minas,8,3
-6.68082475662212,-34.9489688873281,Motorista 1096,Baía da Traição,5,2
1.12907052040097,-50.4717063903794,Motorista 1097,Tartarugalzinho,4,1
-0.926810503005954,-52.4230885505661,Motorista 1098,Vitória do Jari,5,2
-4.15708065032947,-46.0064935684191,Motorista 1099,Santa Luzia,9,3
-10.34304857254,-48.2908129692064,Motorista 1100,Palmas,8,2
-3.95371556282032,-38.6933112144459,Motorista 1101,Maranguape,5,1
-21.0226714611047,-48.2262253761278,Motorista 1102,Pitangueiras,6,2
-23.1831049919122,-44.975194931029,Motorista 1103,Cunha,8,3
-21.9658219814294,-43.3133625984179,Motorista 1104,Simão Pereira,5,2
-5.10061740875229,-42.8399419784533,Motorista 1105,Timon,2,1
-22.5818502902978,-45.6353187561022,Motorista 1106,Brasópolis,6,2
-19.0675663948054,-51.5441823005661,Motorista 1107,Itajá,9,3
-22.9630565643304,-45.4140043258654,Motorista 1108,Pindamonhangaba,8,2
-20.425454,-40.322946,Motorista 1109,Vila Velha,6,1
-28.7207937240592,-49.595074653624,Motorista 1110,Nova Veneza,9,2
-21.0627329349512,-43.6584019660937,Motorista 1111,Ressaquinha,8,3
-4.60946,-44.9804,Motorista 1112,Lago dos Rodrigues,7,3
-26.7738854885094,-53.190500736235,Motorista 1113,Maravilha,4,3
-7.36017465591409,-35.8966469764699,Motorista 1114,Queimadas,5,2
-11.2991273403164,-41.9920849800098,Motorista 1115,Presidente Dutra,6,1
-8.2468485832212,-35.4573011398305,Motorista 1116,Chã Grande,9,2
-23.0774152278893,-44.9544239044176,Motorista 1117,Cunha,8,3
-10.8254277706143,-39.4361114501942,Motorista 1118,Nordestina,5,2
-15.7706701755519,-47.7785968780504,Motorista 1119,Brasília,6,1
-7.12888240814188,-34.956328868865,Motorista 1120,Santa Rita,9,2
-18.9933228492731,-46.3062357902513,Motorista 1121,Carmo do Paranaíba,8,3
-21.2548649311059,-44.9909448623644,Motorista 1122,Lavras,5,2
-1.20918273925778,-46.0224580764757,Motorista 1123,Carutapera,6,1
-8.41007709503149,-37.0695662498463,Motorista 1124,Arcoverde,6,2
-7.22014188766459,-44.553036689757,Motorista 1125,Benedito Leite,6,3
-16.6981244087214,-43.8737297058093,Motorista 1126,Montes Claros,6,1
-22.9326188564294,-45.4277801513659,Motorista 1127,Pindamonhangaba,8,2
-15.5955541133876,-56.1390209197982,Motorista 1128,Cuiabá,7,3
-16.1822926998134,-47.9384994506822,Motorista 1129,Luziânia,5,1
-6.05285525321943,-35.4323029518117,Motorista 1130,Vera Cruz,8,2
-12.6633310317989,-38.5351896286,Motorista 1131,Candeias,4,3
-9.43430542945834,-35.5209231376638,Motorista 1132,Barra de Santo Antônio,5,3
-21.8936812877649,-45.5921244621264,Motorista 1133,São Gonçalo do Sapucaí,8,2
-28.6514961719505,-53.6243963241562,Motorista 1134,Cruz Alta,5,1
-12.2314412015874,-44.3610994041545,Motorista 1135,Cristópolis,9,1
-3.82433652877797,-38.6303758621205,Motorista 1136,Maracanaú,8,2
-21.7250454425805,-41.3151812553394,Motorista 1137,Campos dos Goytacazes,7,3
-8.52525115013098,-36.4358782768239,Motorista 1138,São Bento do Una,5,3
-29.6490418910972,-51.1753678321824,Motorista 1139,Estância Velha,8,2
-5.66493272781356,-36.6037845611562,Motorista 1140,Angicos,9,1
-3.12268137931815,-40.1508235931385,Motorista 1141,Marco,6,1
-8113,-35015,Motorista 1142,Jaboatão dos Guararapes,2,2
-14.2770123481746,-49.6579670906052,Motorista 1143,Campos Verdes,8,3
-2.59328842163078,-45.3634285926806,Motorista 1144,Presidente Sarney,7,3
-12.2918236255642,-38.9422631263722,Motorista 1145,Feira de Santana,5,2
-5.20032048225388,-37.3466491699208,Motorista 1146,Mossoró,4,1
-7.57329225540139,-35.2400851249685,Motorista 1147,Aliança,6,2
-3.07435870170584,-42.2373676300037,Motorista 1148,Água Doce do Maranhão,9,3
-3.78569126129139,-43.638274669646,Motorista 1149,Chapadinha,8,2
-8.78384828567479,-35.8126187324514,Motorista 1150,Maraial,5,1
-12.6761251087728,-39.0970283599909,Motorista 1151,Cruz das Almas,4,2
-26.9898140430443,-51.1743164062485,Motorista 1152,Videira,5,3
-5.8823633193968,-41.1343789100635,Motorista 1153,Assunção do Piauí,9,2
-12.9807972908016,-38.488905429839,Motorista 1154,Salvador,8,1
-7.90395498275734,-35.1748538017263,Motorista 1155,Paudalho,5,2
-7.87652134895302,-35.452880859374,Motorista 1156,Limoeiro,6,3
-26.5004932880394,-49.082129001616,Motorista 1157,Jaraguá do Sul,8,2
-29.2310035228721,-50.2624297142014,Motorista 1158,Cambará do Sul,5,1
-2.85057663917533,-41.7729592323291,Motorista 1159,Ilha Grande,2,2
-4.55447673797594,-45.2665472030627,Motorista 1160,Paulo Ramos,6,3
-25874,-50383,Motorista 1161,São Mateus do Sul,9,3
-3.83813381195057,-40.8563947677601,Motorista 1162,Ubajara,8,3
-21.1120641231531,-42.9505348205554,Motorista 1163,Ubá,6,2
-15.5847287178035,-56.0591125488265,Motorista 1164,Cuiabá,9,1
-4.10248160362232,-38.4973168373097,Motorista 1165,Horizonte,8,2
-22.2873008251184,-51.509764194487,Motorista 1166,Pirapozinho,7,3
-22.4026036262506,-43.0976271629321,Motorista 1167,Petrópolis,4,2
-21.6123497486108,-41.2248659133899,Motorista 1168,Campos dos Goytacazes,5,1
-1.5344381332397,-49.2265820503221,Motorista 1169,Muaná,6,2
-6.97124361991862,-35.6965970993032,Motorista 1170,Areia,9,3
-3.55848670005788,-40.5222129821766,Motorista 1171,Alcântaras,8,2
-29.9667549133292,-51.6326093673691,Motorista 1172,Charqueadas,5,1
-25548,-54588,Motorista 1173,Foz do Iguaçu,6,2
-4.00823950767505,-42.9733657836902,Motorista 1174,Buriti,9,3
-7.71086812019326,-72.7085065841654,Motorista 1175,Cruzeiro do Sul,8,1
-25965,-52816,Motorista 1176,Itapejara d'Oeste,5,2
-6187,-35092,Motorista 1177,Tibau do Sul,6,3
-22.8152346611016,-46.6939973831163,Motorista 1178,Tuiuti,6,1
-1.37147784233089,-48.3171844482408,Motorista 1179,Marituba,6,2
-4.39629077911364,-48.2137370109544,Motorista 1180,Rondon do Pará,6,3
-29.4639801979056,-51.3625645637497,Motorista 1181,Bom Princípio,8,3
-25.3870761394493,-50.6985998153672,Motorista 1182,Irati,7,2
-11.3079893589016,-41.4757490158069,Motorista 1183,América Dourada,5,1
-9982,-57535,Motorista 1184,Nova Monte Verde,8,1
-11.4931046962735,-38.9978384971607,Motorista 1185,Teofilândia,4,2
-16.2196075916286,-45.9976315498339,Motorista 1186,Riachinho,5,3
-12.402362823486,-38.6171793937672,Motorista 1187,Terra Nova,8,3
-5.25416851043686,-44.6454119682299,Motorista 1188,Tuntum,5,2
-1.5119612216949,-48.4185719490037,Motorista 1189,Acará,9,1
-5.60008764266952,-47.42733478546,Motorista 1190,Imperatriz,8,1
-6.69554471969585,-35.6366872787465,Motorista 1191,Bananeiras,7,2
-1.52716398239131,-45.0793504714953,Motorista 1192,Apicum-Açu,5,3
-27.8504705429069,-54.4863080978378,Motorista 1193,Santa Rosa,8,3
-29.6664977073661,-51.9466638565048,Motorista 1194,Bom Retiro do Sul,9,2
-16.4720785617824,-54.5773744583114,Motorista 1195,Rondonópolis,6,1
-26.9703626632683,-48.6432552337632,Motorista 1196,Balneário Camboriú,2,2
-14.5178639888759,-42.4165177345264,Motorista 1197,Licínio de Almeida,8,3
-29.2263793945304,-51.3453340530381,Motorista 1198,Farroupilha,7,2
-3.72648954391469,-42.0048308372485,Motorista 1199,Batalha,5,1
-4.9752831459044,-44.5736789703356,Motorista 1200,São José dos Basílios,4,2
-17.3883211612696,-49.2125058174119,Motorista 1201,Piracanjuba,6,3
-21.0739123821252,-43.325614929198,Motorista 1202,Alto Rio Doce,9,2
-21.7608046531671,-41.5239429473865,Motorista 1203,Campos dos Goytacazes,8,1
-8.35966229438757,-35.2345490455617,Motorista 1204,Escada,5,2
-20.6945192813867,-45.9123587608324,Motorista 1205,Guapé,4,3
-6.90502524375895,-36.0083770751943,Motorista 1206,Algodão de Jandaíra,5,2
-21.4539492130273,-43.5664987564074,Motorista 1207,Santos Dumont,9,1
-26.122205257415,-49.8248434066758,Motorista 1208,Mafra,8,2
-4.18566226959216,-45.5002641677843,Motorista 1209,Altamira do Maranhão,5,3
-27.1490943431846,-48.5870790481553,Motorista 1210,Porto Belo,6,3
-27.1494483947746,-52.3113369941696,Motorista 1211,Seara,8,3
-12.868305444717,-38.3016872405995,Motorista 1212,Lauro de Freitas,5,2
-7.19741821289042,-45.6329584121691,Motorista 1213,São Raimundo das Mangabeiras,2,1
-8.11230897903419,-35.2741384506215,Motorista 1214,Vitória de Santo Antão,6,2
3.58502984046926,-61.1138749122602,Motorista 1215,Amajari,9,3
-27.075676918029,-53.2458400726303,Motorista 1216,Caibi,8,2
-8.63115549087499,-36.0147285461415,Motorista 1217,Panelas,6,1
-5.13862967491135,-44.3789291381823,Motorista 1218,Presidente Dutra,9,2
-20129,-40308,Motorista 1219,Serra,8,3
-10.6502902507779,-45.1873040199267,Motorista 1220,Cristalândia do Piauí,7,2
-21.9306536,-42.6048622,Motorista 1221,Carmo,4,1
-3.14011573791495,-59.9974322319013,Motorista 1222,Manaus,5,2
-4.17761564254749,-42.8931999206531,Motorista 1223,Miguel Alves,6,1
-7.33250498771646,-37.3975253105153,Motorista 1224,Imaculada,9,2
-9.11173224449131,-37.1254634857167,Motorista 1225,Águas Belas,8,3
-0.979617834091158,-46.5924596786485,Motorista 1226,Augusto Corrêa,5,1
-19.7657024860376,-44.1345906257617,Motorista 1227,Ribeirão das Neves,6,2
-8.07059526443458,-35.35887479782,Motorista 1228,Vitória de Santo Antão,9,3
-21.5331065654748,-43.1914615631091,Motorista 1229,Goianá,8,3
-19.5172655582422,-54.0436363220199,Motorista 1230,Camapuã,5,2
-6.14220499992353,-38.2888770103443,Motorista 1231,Encanto,6,1
-10.8737075328824,-37.785608768462,Motorista 1232,Lagarto,6,1
-21.685327291488,-45.9063076972948,Motorista 1233,Machado,6,2
-23485,-51792,Motorista 1234,Marialva,6,3
-30.0354731082908,-51.157836914061,Motorista 1235,Porto Alegre,8,3
-9.96471762657137,-36.999442577361,Motorista 1236,Traipu,7,2
-5.37566184997543,-49.1310524940477,Motorista 1237,Marabá,5,1
-5.35338878631576,-49.1423177719102,Motorista 1238,Marabá,8,1
-7.6535117626188,-35.3191995620717,Motorista 1239,Vicência,4,2
-10.7076680660245,-43.6355495452868,Motorista 1240,Buritirama,5,3
-18.3644306659693,-47.7819871902452,Motorista 1241,Três Ranchos,8,3
-0.93090891838071,-48.1966996192918,Motorista 1242,Colares,5,2
-20.8970367908472,-47.9854488372789,Motorista 1243,Pontal,9,1
-20.2787232398981,-50.5497050285325,Motorista 1244,Jales,8,2
-19.9414622783655,-44.1705107688891,Motorista 1245,Betim,7,3
-15.8309447765346,-48.0963635444627,Motorista 1246,Brasília,5,2
-20.9318518638605,-42.7207875251758,Motorista 1247,Guiricema,8,1
-20.4259979724878,-42.7774143218982,Motorista 1248,Oratórios,9,2
-8.81039142608617,-40.8291006088245,Motorista 1249,Petrolina,6,3
-21.6888892650598,-45.2513337135302,Motorista 1250,Três Corações,2,2
-23.6852788925164,-46.6613602638231,Motorista 1251,São Paulo,8,1
-9.85631346702547,-57.8100371360762,Motorista 1252,Nova Bandeirantes,7,2
-28.6784791946403,-49.3074774742112,Motorista 1253,Içara,5,3
-18.8662183284754,-41.9530105590808,Motorista 1254,Governador Valadares,4,2
-4.47138190269457,-45.549015998839,Motorista 1255,Paulo Ramos,6,1
-1.16523742675778,-47.7973079681383,Motorista 1256,São Francisco do Pará,9,2
-2.52237081527703,-47.7328920364366,Motorista 1257,Ipixuna do Pará,8,3
-10.0291550159451,-45.302982330321,Motorista 1258,São Gonçalo do Gurguéia,5,3
-12.4806296825405,-49.1241645812974,Motorista 1259,Alvorada,4,3
-5.38186311721786,-43.0174827575671,Motorista 1260,Timon,5,2
-20.6177973747247,-49.6430540084825,Motorista 1261,Tanabi,9,1
-6.95425987243632,-39.5458030700672,Motorista 1262,Farias Brito,8,2
-14.3511164188381,-40.9044384956348,Motorista 1263,Caetanos,5,3
-3.48435044288625,-42.5045585632312,Motorista 1264,Madeiro,6,2
-24.3780076503747,-50.6683444976792,Motorista 1265,Telêmaco Borba,8,1
-21.3614666461938,-41.9447708129871,Motorista 1266,São José de Ubá,5,2
-5.58161258697494,-36.1055374145497,Motorista 1267,Pedra Preta,2,3
-15.9687674045558,-54.9599218368514,Motorista 1268,Jaciara,6,2
-25767,-53527,Motorista 1269,Realeza,9,1
-10.0279211997983,-37.8438234329213,Motorista 1270,Pedro Alexandre,8,2
-22.846833,-43.373272,Motorista 1271,Rio de Janeiro,6,3
-12.6755921386653,-38.4666087703855,Motorista 1272,Candeias,9,1
-18.6074388027186,-45.3578281402575,Motorista 1273,Morada Nova de Minas,8,2
-22.9326403141015,-46.5333008766161,Motorista 1274,Bragança Paulista,7,3
-25.638247,-53.213031,Motorista 1275,Boa Esperança do Iguaçu,4,1
0.0377547740936268,-51.1289763450608,Motorista 1276,Macapá,5,2
-29.7729814052573,-51.9257640838608,Motorista 1277,General Câmara,6,3
-8.50984454154944,-39.3079233169544,Motorista 1278,Cabrobó,9,3
-16.9583630561824,-49.2145442962632,Motorista 1279,Hidrolândia,8,2
-14.0499901771541,-52.1601676940903,Motorista 1280,Água Boa,5,1
-17.4334788322444,-41.4854049682605,Motorista 1281,Catuji,6,1
-26.128320693969,-49.7767567634568,Motorista 1282,Mafra,9,2
-20.8846557140344,-49.5720291137681,Motorista 1283,Jaci,8,3
-22903,-43208,Motorista 1284,Rio de Janeiro,5,3
-23.878279924392,-46.4189743995653,Motorista 1285,Cubatão,6,2
-23.3810305595391,-46.7380285263048,Motorista 1286,Caieiras,6,1
-9.62000012397738,-35.7278823852529,Motorista 1287,Maceió,6,1
-7.98067688941932,-38.2788133621205,Motorista 1288,Serra Talhada,6,2
-25.3956162929528,-49.1873788833604,Motorista 1289,Pinhais,8,3
-31.7351460456839,-52.2115373611435,Motorista 1290,Pelotas,7,3
-21.4252066612237,-50.0657486915574,Motorista 1291,Penápolis,5,2
-9.13622617721531,-35.7535886764516,Motorista 1292,Joaquim Gomes,8,1
-8.00232768058754,-35.6998801231374,Motorista 1293,Cumaru,4,2
-27.6924133300773,-51.1288046836838,Motorista 1294,Anita Garibaldi,5,3
-19.5464479923243,-42.5883293151843,Motorista 1295,Timóteo,8,2
-13.8561844825741,-40.0777387619007,Motorista 1296,Jequié,5,1
-26.8349003791801,-49.2625451087937,Motorista 1297,Timbó,9,2
-14.0286612510677,-40.1394295692432,Motorista 1298,Jequié,8,3
-9.30938959121677,-37.4311923980702,Motorista 1299,Maravilha,7,2
-8.03061962127662,-34.9328756332387,Motorista 1300,Recife,5,1
-29.1472756862632,-51.1920189857468,Motorista 1301,Caxias do Sul,8,2
-24.0182912349694,-46.4880466461168,Motorista 1302,Praia Grande,9,3
-17.3241090774531,-48.4271764755235,Motorista 1303,Palmelo,6,2
-5.09015679359421,-42.8444480895984,Motorista 1304,Timon,2,1
-21.9702744483941,-46.8093109130846,Motorista 1305,São João da Boa Vista,8,2
-21.1140596866602,-56.4812922477706,Motorista 1306,Bonito,7,3
-20.4908323287958,-47.9936242103563,Motorista 1307,Ipuã,5,3
-26.9129097461693,-48.986856937407,Motorista 1308,Gaspar,4,3
0.297800302505485,-51.1338257789597,Motorista 1309,Macapá,6,2
1.74331784248347,-50.784666538237,Motorista 1310,Pracuúba,9,1
-22.7753877639764,-47.5990819931016,Motorista 1311,Piracicaba,8,2
-13.4578013420101,-56.7239356040938,Motorista 1312,São José do Rio Claro,5,3
-8.00908684730507,-34.9935150146474,Motorista 1313,Camaragibe,4,2
-16.2558388710017,-56.6315388679488,Motorista 1314,Poconé,5,1
-3.89583349227894,-38.6841917037953,Motorista 1315,Maranguape,9,2
-16.8600869178767,-53.0332374572738,Motorista 1316,Araguainha,8,3
-22.8594374656671,-52.3355197906479,Motorista 1317,São João do Caiuá,5,2
-25986,-50197,Motorista 1318,Antônio Olinto,6,1
-28.5141456127158,-55.2340865135177,Motorista 1319,Santo Antônio das Missões,8,2
-24.1386795043938,-49.8350143432603,Motorista 1320,Arapoti,5,3
-22.7635538578027,-43.4230756759631,Motorista 1321,Nova Iguaçu,2,1
-7.17908263206461,-35.5845880508412,Motorista 1322,Juarez Távora,6,2
-15.7053530216212,-52.7565193176254,Motorista 1323,General Carneiro,9,3
-15.0976502895351,-44.0942502021777,Motorista 1324,Itacarambi,8,1
-16.843382120132,-42.0674014091479,Motorista 1325,Araçuaí,6,2
-26161,-51553,Motorista 1326,Bituruna,9,3
-30.2587401866904,-54.9321556091293,Motorista 1327,Rosário do Sul,8,3
-17.3128223419184,-49.0328407287583,Motorista 1328,Piracanjuba,7,2
-22.7428472042077,-42.8345346450793,Motorista 1329,Itaboraí,4,1
-4.34049010276782,-40.9465599060047,Motorista 1330,Croatá,5,1
-23.6353898048394,-46.6992545127855,Motorista 1331,São Paulo,6,2
-23.6208951473229,-46.6876888275133,Motorista 1332,São Paulo,9,3
-22.1710753440851,-47.3755145072923,Motorista 1333,Leme,8,3
-20.4906070232385,-54.6050763130172,Motorista 1334,Campo Grande,5,2
-23.0131709575646,-49.4840097427354,Motorista 1335,Bernardino de Campos,6,1
-27.4101054668419,-50.2851533889756,Motorista 1336,Ponte Alta,9,1
-7.1504795551298,-34.8925137519826,Motorista 1337,João Pessoa,8,2
-23.4979641437524,-46.8047404289232,Motorista 1338,Osasco,5,3
-31.5420484542838,-52.4645876884445,Motorista 1339,Pelotas,6,3
-30.2967631816855,-51.3170957565293,Motorista 1340,Barra do Ribeiro,6,2
-20.824960470199,-55.6656002998336,Motorista 1341,Anastácio,6,1
-5.68660497665389,-35.2439904212941,Motorista 1342,Extremoz,6,2
-22.1711719036096,-49.9610996246323,Motorista 1343,Marília,8,3
-4.83061552047715,-42.182135581969,Motorista 1344,Campo Maior,7,2
-6.37573957443219,-38.29926252365,Motorista 1345,José da Penha,5,1
-4.71316695213304,-43.7662911415087,Motorista 1346,Codó,8,2
-25.2161228656761,-49.6954321861253,Motorista 1347,Campo Largo,4,3
-30.6115,-51.5795,Motorista 1348,Sentinela do Sul,5,2
-28.9857423305503,-51.8363070487961,Motorista 1349,Dois Lajeados,8,1
-22.6352798938745,-47.2004199028001,Motorista 1350,Cosmópolis,5,2
-6755,-51084,Motorista 1351,Ourilândia do Norte,9,3
-29.2526543140403,-53.3021879196152,Motorista 1352,Pinhal Grande,8,2
-21.2070679664606,-43.7734365463244,Motorista 1353,Barbacena,7,1
-6.48625731468182,-35.4229688644399,Motorista 1354,Nova Cruz,5,2
-20.7763159275049,-42.2027564048755,Motorista 1355,Carangola,8,3
-14.6833240985866,-39.4132375717152,Motorista 1356,Itajuípe,9,3
-13.3985086357342,-44.1952662880164,Motorista 1357,São Félix do Coribe,6,3
-11.5370821952816,-38.8393092155445,Motorista 1358,Biritinga,2,2
-4.33446,-45.5814,Motorista 1359,Brejo de Areia,8,1
-6.45537972450238,-42.721366882323,Motorista 1360,Amarante,7,2
-3.70517134666432,-38.5640287399281,Motorista 1361,Fortaleza,5,3
-9.18151259422276,-38.2626342773426,Motorista 1362,Jatobá,4,2
-27.1171760559074,-52.6248335838303,Motorista 1363,Chapecó,6,1
-6.48661136627178,-36.1536240577687,Motorista 1364,Cuité,9,2
-8.69404792785619,-37.3580002784718,Motorista 1365,Tupanatinga,8,3
-10.3547859191892,-36.298291683196,Motorista 1366,Piaçabuçu,5,2
-9.90801572799654,-36.3625574111928,Motorista 1367,Teotônio Vilela,4,1
-7.30173468589761,-39.281015396117,Motorista 1368,Barbalha,5,2
-7.65382289886452,-49.0644907951341,Motorista 1369,Arapoema,9,3
-17.7949547767634,-50.949997901915,Motorista 1370,Rio Verde,8,1
-29.5539951324454,-51.7328381538376,Motorista 1371,Paverama,5,2
-23.5322105884545,-46.7009282112108,Motorista 1372,São Paulo,6,3
-20.4912078380579,-43.6022257804858,Motorista 1373,Ouro Branco,8,1
-26.3329088687889,-48.8496780395494,Motorista 1374,Joinville,5,2
-11.1016302660035,-38.5244760074886,Motorista 1375,Cipó,2,3
-29.909424,-51.208729,Motorista 1376,Canoas,6,3
-9.72060441970797,-35.8936214447011,Motorista 1377,Marechal Deodoro,9,2
-24.1082203388207,-51.0406351089463,Motorista 1378,Ortigueira,8,1
-21.4082014560693,-42.6719713211047,Motorista 1379,Cataguases,6,1
-19.9691748619074,-44.0374302864062,Motorista 1380,Contagem,9,2
-11.6582536697384,-39.099462032317,Motorista 1381,Serrinha,8,3
-12.2385656833645,-38.9240026473988,Motorista 1382,Feira de Santana,7,3
-20.1388835906977,-44.9055862426745,Motorista 1383,Divinópolis,4,2
-25.8189439773552,-50.9021902084336,Motorista 1384,Mallet,5,1
-26.5325403213493,-49.2242860794053,Motorista 1385,Jaraguá do Sul,6,1
-9.65844154357882,-45.3745436668383,Motorista 1386,Gilbués,9,2
-19.8009681701654,-44.0049219131457,Motorista 1387,Ribeirão das Neves,8,3
-15.085923671722,-43.1191062927234,Motorista 1388,Gameleiras,5,3
-3.48816990852346,-46.3256978988634,Motorista 1389,São João do Carú,6,2
-3.74059796333302,-43.3648180961596,Motorista 1390,Chapadinha,9,1
-10.2834713459012,-36.5732288360585,Motorista 1391,Penedo,8,2
-4.45105075836169,-43.8699960708605,Motorista 1392,Codó,5,3
-19.5674443244928,-41.2273764610279,Motorista 1393,Aimorés,6,2
-11.0231494903561,-68.7499737739543,Motorista 1394,Epitaciolândia,6,1
-28.9432775974265,-49.5122694969163,Motorista 1395,Araranguá,6,2
-6.59252643585186,-37.6243114471425,Motorista 1396,Paulista,6,3
-6.65030121803264,-35.111768245696,Motorista 1397,Rio Tinto,8,2
-21.9608652591699,-44.8888707160937,Motorista 1398,Baependi,7,1
-5.77531099319441,-42.6834726333606,Motorista 1399,Agricolândia,5,2
-9781,-36094,Motorista 1400,São Miguel dos Campos,8,3
-22.5288176536554,-44.1159868240344,Motorista 1401,Volta Redonda,4,2
-21.4930987358087,-41.7490553855884,Motorista 1402,São Fidélis,5,1
-21.1867153644556,-45.4446887969957,Motorista 1403,Coqueiral,8,2
-4.25285696983325,-44.2469215393054,Motorista 1404,Coroatá,5,3
-5.72670936584456,-42.9898881912219,Motorista 1405,Palmeirais,9,3
-23.0072593688958,-45.5896353721605,Motorista 1406,Taubaté,8,3
-15.117273330688,-40.0638341903675,Motorista 1407,Itororó,7,2
-22.535426616668,-45.3643512725817,Motorista 1408,Wenceslau Braz,5,1
-10.3898692131039,-37.3566699028004,Motorista 1409,São Miguel do Aleixo,8,2
-21205,-41888,Motorista 1410,Itaperuna,9,3
-4.45950508117663,-39.8026299476612,Motorista 1411,Santa Quitéria,6,2
-0.991687774658174,-47.2109341621385,Motorista 1412,Primavera,2,1
-0.853736400604223,-47.9234147071824,Motorista 1413,São João da Ponta,8,2
-6.83463335037212,-35.7166600227346,Motorista 1414,Arara,7,3
-8.94856810569737,-38.570144176482,Motorista 1415,Rodelas,5,2
-16.9782650470729,-48.9501857757554,Motorista 1416,Bela Vista de Goiás,4,1
-22.1815466880792,-54.672217369078,Motorista 1417,Dourados,6,2
-16.3437080383296,-48.9335560798631,Motorista 1418,Anápolis,9,3
-20.7221996784204,-42.8669786453235,Motorista 1419,Viçosa,8,1
-30.1617836952201,-53.565645217894,Motorista 1420,São Sepé,5,2
-3.28228354454031,-39.903631210326,Motorista 1421,Amontada,4,3
-7.66844630241372,-35.1001596450795,Motorista 1422,Itaquitinga,5,1
-5.33608317375168,-47.5948762893663,Motorista 1423,Imperatriz,9,2
-14.4264864921566,-54.0451812744125,Motorista 1424,Paranatinga,8,3
-7.65526056289651,-38.9898133277882,Motorista 1425,Jati,5,3
-12.8499698638912,-39.430854320525,Motorista 1426,Castro Alves,6,2
-5.66105961799605,-36.6071534156789,Motorista 1427,Angicos,8,1
-6.53242349624615,-49.8519873619065,Motorista 1428,Canaã dos Carajás,5,1
-27.2941052913658,-50.5615711212143,Motorista 1429,Curitibanos,2,2
-2.54690766334526,-44.0995931625353,Motorista 1430,São José de Ribamar,6,3
-2.95398116111747,-41.7900395393359,Motorista 1431,Parnaíba,9,3
-20.7711768150324,-42.9016757011401,Motorista 1432,Viçosa,8,2
-30.0352799892417,-52.8678846359238,Motorista 1433,Cachoeira do Sul,6,1
-1.68345093727107,-46.7125797271715,Motorista 1434,Viseu,9,1
-8.30003142356848,-35.3784656524648,Motorista 1435,Primavera,8,2
-4.57832694053637,-37.791552543639,Motorista 1436,Aracati,7,3
-23.3472347259515,-47.8456950187669,Motorista 1437,Tatuí,4,3
0.364168882369985,-50.6832790374741,Motorista 1438,Itaubal,5,2
-10.45903801918,-37.3239254951466,Motorista 1439,São Miguel do Aleixo,6,1
-23.5280907154076,-46.7636919021593,Motorista 1440,Osasco,9,2
-3.19638848304739,-45.0045061111437,Motorista 1441,Viana,8,3
-6.58398628234844,-36.1103868484487,Motorista 1442,Cuité,5,2
-20.4366409778589,-47.8311467170701,Motorista 1443,Guará,6,1
-11.5263211727139,-41.7940950393665,Motorista 1444,Lapão,9,2
-23.5576164722436,-51.4286327362046,Motorista 1445,Apucarana,8,3
-6.79841279983501,-39.3036746978748,Motorista 1446,Várzea Alegre,5,2
-22.1558189392083,-50.0102806091294,Motorista 1447,Marília,6,1
-25.4767370223992,-49.3163609504685,Motorista 1448,Curitiba,6,2
-21205,-41888,Motorista 1449,Itaperuna,6,3
-11.0778450965878,-54.5121431350692,Motorista 1450,Marcelândia,6,2
-22.5727093219751,-47.3864150047288,Motorista 1451,Limeira,8,1
-0.700249671936015,-48.5101532936082,Motorista 1452,Soure,7,2
-1.87983155250544,-47.4579977989183,Motorista 1453,Irituia,5,3
-10.7306921482083,-48.4112763404832,Motorista 1454,Porto Nacional,8,3
-19.8727011680597,-47.4428486824022,Motorista 1455,Sacramento,4,3
4.11929368972766,-60.364251136778,Motorista 1456,Normandia,5,2
-11.5510833263394,-41.9023275375354,Motorista 1457,Ibititá,8,1
-12.9953670501705,-38.5021448135365,Motorista 1458,Salvador,5,2
-8.37977886199927,-35.9241557121266,Motorista 1459,Agrestina,9,3
-11.1327445507046,-37.4021387100209,Motorista 1460,Estância,8,2
-23.8060426712029,-48.6092877387986,Motorista 1461,Buri,7,1
-31.6918659210196,-52.3572349548325,Motorista 1462,Pelotas,5,2
0.104895830154416,-51.200516223906,Motorista 1463,Macapá,8,3
0.337368249893179,-50.8748316764817,Motorista 1464,Macapá,9,2
-21.4645707607263,-47.0182657241808,Motorista 1465,Mococa,6,1
-13.8037526607509,-43.7685656547534,Motorista 1466,Carinhanha,2,2
-14.7096312046047,-40.2505373954761,Motorista 1467,Nova Canaã,8,3
-19.8281013965601,-44.0895080566393,Motorista 1468,Ribeirão das Neves,7,1
-19.2407834529871,-46.0693645477282,Motorista 1469,São Gotardo,5,2
-27.8038215637199,-50.37096261978,Motorista 1470,Lages,4,3
-10.7944750785824,-55.4558730125411,Motorista 1471,Colíder,6,1
-7.58990049362161,-35.1121973991384,Motorista 1472,Condado,9,2
-18.622641563415,-46.6649222373949,Motorista 1473,Patos de Minas,8,3
-11.4936947822567,-39.4273138046253,Motorista 1474,Retirolândia,5,3
-3.88596296310414,-42.7140498161303,Motorista 1475,Porto,4,2
-4.34536099433886,-41.5560221672046,Motorista 1476,Lagoa de São Francisco,5,1
-1.71544432640071,-47.9798483848558,Motorista 1477,Bujaru,9,1
-7.7805411815641,-39.9402165412891,Motorista 1478,Bodocó,8,2
-4.98372673988328,-42.8428173065173,Motorista 1479,Teresina,5,3
-1.3393664360046,-48.4269618988023,Motorista 1480,Ananindeua,6,3
-20.5370199680322,-47.4140739440904,Motorista 1481,Franca,8,2
-22.3507618904107,-48.7750053405748,Motorista 1482,Pederneiras,5,1
-21.9977939128869,-49.4574880599961,Motorista 1483,Pirajuí,2,1
-19.8959183692926,-44.0263152122485,Motorista 1484,Contagem,6,2
-20.5987107753748,-47.4790048599229,Motorista 1485,Restinga,9,3
-8.53411316871618,-37.1246480941762,Motorista 1486,Buíque,8,3
-8.09493899345375,-39.5843625068653,Motorista 1487,Parnamirim,6,2
-29.641081094741,-51.0285544395432,Motorista 1488,Sapiranga,9,1
-11.3539624214169,-62.283446788786,Motorista 1489,Alvorada D'Oeste,8,2
-29.0453839302055,-52.2930979728684,Motorista 1490,São José do Herval,7,3
-8.01928997039772,-34.9577236175527,Motorista 1491,Recife,4,2
-30.1973927021018,-52.3858594894394,Motorista 1492,Pantano Grande,5,1
-30.3173518180838,-52.3622131347641,Motorista 1493,Pantano Grande,6,2
-29.0984702110282,-49.8636817932114,Motorista 1494,Jacinto Machado,9,3
-8.89910817146275,-36.5007233619679,Motorista 1495,Garanhuns,8,2
-9884,-36829,Motorista 1496,Girau do Ponciano,5,1
-9884,-36829,Motorista 1497,Girau do Ponciano,6,2
-8.96770834922764,-35.922782421111,Motorista 1498,Ibateguara,9,3
-27.144424,-48.903011,Motorista 1499,Brusque,8,2
-8.04582238197303,-34.8782873153676,Motorista 1500,Recife,5,1
-6.62041068077068,-35.4733085632314,Motorista 1501,Caiçara,6,2
-6.1567533016203,-36.6931772232045,Motorista 1502,São Vicente,6,3
-3.52720141410817,-44.7499752044665,Motorista 1503,Arari,6,3
-28.2787871360771,-52.7704024314865,Motorista 1504,Carazinho,6,3
-1.69349312782283,-45.5969309806811,Motorista 1505,Turiaçu,8,2
-2.99490094184867,-45.2517199516283,Motorista 1506,Pedro do Rosário,7,1
-8.32924604415869,-36.356463432311,Motorista 1507,Belo Jardim,5,2
-3.51947665214528,-42.1686387062061,Motorista 1508,Joaquim Pires,8,3
-7.95698761939979,-36.347107887267,Motorista 1509,Santa Cruz do Capibaribe,4,2
-0.983791351318331,-47.8836965560899,Motorista 1510,Terra Alta,5,1
-22.3978829383844,-43.6501622199999,Motorista 1511,Vassouras,8,2
-22.3957049846643,-43.7358856201159,Motorista 1512,Vassouras,5,3
-2.80209302902214,-58.4383606910689,Motorista 1513,Silves,9,2
1.80769085884089,-61.1317920684797,Motorista 1514,Caracaraí,8,1
-19.9720072746271,-44.0310359001147,Motorista 1515,Contagem,7,2
-20.62,-41686,Motorista 1516,Divino de São Lourenço,5,3
-12.8844596582424,-39.4849103259478,Motorista 1517,Elísio Medrado,8,1
-26.6521453857414,-49.9892950057969,Motorista 1518,Santa Terezinha,9,2
-21.890280246734,-49.2198014259324,Motorista 1519,Reginópolis,6,3
-7.04063773155192,-36.6068315505971,Motorista 1520,Juazeirinho,2,1
-9.36408519744846,-40.5480694770801,Motorista 1521,Petrolina,8,2
-5.32078385353073,-41.5496706962573,Motorista 1522,Castelo do Piauí,7,3
-2.00926423072809,-54.0864229202255,Motorista 1523,Monte Alegre,5,3
-4.86025929450975,-39.0530705451954,Motorista 1524,Quixadá,4,2
-5.42256832122787,-39.4481921195972,Motorista 1525,Quixeramobim,6,1
-19.8383367061609,-44.5190691947924,Motorista 1526,Pará de Minas,9,1
-19.8499560356134,-44.6033120155322,Motorista 1527,Pará de Minas,8,2
-26.3210856914513,-53.1829905509933,Motorista 1528,Flor da Serra do Sul,5,3
-3.52284550666799,-41.2977790832508,Motorista 1529,Viçosa do Ceará,4,3
-22.9416739940637,-42.1793675422656,Motorista 1530,Arraial do Cabo,5,2
-20.376653,-40.406685,Motorista 1531,Viana,9,1
-7.63727903366067,-48.420245647429,Motorista 1532,Nova Olinda,8,1
-17.9466176033015,-47.4685335159288,Motorista 1533,Catalão,5,2
-19.9293386936182,-44.1138839721667,Motorista 1534,Contagem,6,3
-19.5562541484827,-42.7749466896045,Motorista 1535,Antônio Dias,8,3
-7.78141021728493,-37.1058082580556,Motorista 1536,Monteiro,5,2
-7.20946669578531,-39.3094897270191,Motorista 1537,Juazeiro do Norte,2,1
-10.4286968708035,-45.163958072661,Motorista 1538,Corrente,6,2
-26.971939802169,-53.6341810226425,Motorista 1539,Tunápolis,9,3
4596,-60168,Motorista 1540,Uiramutã,8,2
-28.7282717227927,-54.8933172225936,Motorista 1541,Bossoroca,6,1
-9.63671565055819,-35.7917189598073,Motorista 1542,Coqueiro Seco,9,2
-2.44310617446892,-44.1064381599413,Motorista 1543,Raposa,8,3
-12.7694499492642,-38.1863951683033,Motorista 1544,Camaçari,7,2
-10.1736938953397,-48.4573888778672,Motorista 1545,Porto Nacional,4,1
-5.51254034042342,-46.7880034446703,Motorista 1546,Amarante do Maranhão,5,2
-21754,-41324,Motorista 1547,Campos dos Goytacazes,6,3
-7.12888240814188,-34.9563503265371,Motorista 1548,Santa Rita,9,2
-27.4156308174125,-48.9516019821153,Motorista 1549,Major Gercino,8,1
-20.8161842823023,-42.362058162688,Motorista 1550,Miradouro,5,2
0.996719598770113,-50.8947873115525,Motorista 1551,Tartarugalzinho,6,3
-20.9274637699121,-51.0251855850205,Motorista 1552,Mirandópolis,9,3
-6.49236202239971,-37.4483799934376,Motorista 1553,São Bento,8,3
-19.8256552219385,-54.8336434364303,Motorista 1554,Corguinho,5,2
-6.43707633018475,-37.0869255065907,Motorista 1555,Caicó,6,1
-18.1013166904444,-54.5547366142257,Motorista 1556,Pedro Gomes,6,2
-6.4353919029234,-36.6426873207082,Motorista 1557,Acari,6,3
-23.4655201435082,-46.6614890098558,Motorista 1558,São Paulo,6,2
-27.1609926223747,-48.5643768310533,Motorista 1559,Porto Belo,8,1
-18863,-41123,Motorista 1560,Mantenópolis,7,2
-10.6304633617398,-37.3633861541737,Motorista 1561,Moita Bonita,5,3
